     2.10           OBSERVATION DATA    G (GPS)             RINEX VERSION / TYPE
teqc  2002Mar14     GSI, JAPAN          20050404 06:03:21UTCPGM / RUN BY / DATE
Linux 2.0.36|Pentium II|gcc -static|Linux|486/DX+           COMMENT
teqc  2002Mar14     GSI, JAPAN          20050402 03:17:17UTCCOMMENT
0759                                                        MARKER NAME
GSI, JAPAN          GEOGRAPHICAL SURVEY INSTITUTE, JAPAN    OBSERVER / AGENCY
00000               TRIMBLE 5700        1.24                REC # / TYPE / VERS
                    TRM29659.00                             ANT # / TYPE
 -3976219.5082  3382372.5671  3652512.9849                  APPROX POSITION XYZ
        0.0000        0.0000        0.0000                  ANTENNA: DELTA H/E/N
     1     1                                                WAVELENGTH FACT L1/2
     4    L1    C1    L2    P2                              # / TYPES OF OBSERV
    30.0000                                                 INTERVAL
teqc windowed: start @ 2005 Apr  2 00:00:00.000             COMMENT
teqc windowed:  end  @ 2005 Apr  2 23:59:59.000             COMMENT
  2005     4     2     0     0    0.0000000     GPS         TIME OF FIRST OBS
                                                            END OF HEADER
 05  4  2  0  0  0.0000000  0  8G 3G 7G 8G11G19G20G24G28
  55923622.160    24767686.375    43647388.2424   24767684.8224
   -691177.898    24361933.475     -537007.1404   24361930.5994
  17984490.035    23407378.219    14018464.8094   23407374.3204
   7712103.227    20311445.258     6019854.6424   20311439.4424
  36724126.590    22613015.950    28621450.8274   22613010.1104
  -5764048.758    21565852.190    -4479034.4614   21565847.2294
  -2292750.457    22276378.821    -1749426.2014   22276375.7484
  -5448227.324    21543408.487    -4238014.2094   21543403.0464
 05  4  2  0  0 30.0000000  0  8G 3G 7G 8G11G19G20G24G28
  56072048.441    24795930.671    43763044.9694   24795930.1344
   -701908.445    24359892.126     -545368.5974   24359888.4314
  18124616.266    23434043.135    14127654.0224   23434039.2244
   7810398.266    20330150.234     6096448.1554   20330144.4164
  36849597.566    22636892.095    28719220.3774   22636886.2564
  -5778656.855    21563073.027    -4490417.3744   21563067.9984
  -2293622.109    22276213.129    -1750105.3924   22276210.0134
  -5446877.656    21543665.837    -4236962.5144   21543659.9384
 05  4  2  0  1  0.0000000  0  8G 3G 7G 8G11G19G20G24G28
  56220567.922    24824193.270    43878774.3064   24824191.9974
   -712671.320    24357843.816     -553755.2934   24357841.0124
  18264997.129    23460756.608    14237041.6674   23460752.7014
   7908989.051    20348911.536     6173272.1424   20348905.3734
  36975237.223    22660800.539    28817121.3664   22660794.6154
  -5792871.453    21560367.612    -4501493.6654   21560362.9564
  -2294190.324    22276105.258    -1750548.1594   22276101.6924
  -5445100.512    21544003.933    -4235577.7194   21543997.7394
 05  4  2  0  1 30.0000000  0  8G 3G 7G 8G11G19G20G24G28
  56369180.777    24852473.485    43994576.3804   24852472.1184
   -723465.660    24355789.956     -562166.4194   24355787.0214
  18405629.316    23487518.167    14346625.1304   23487514.2704
   8007874.500    20367728.852     6250325.7434   20367722.6654
  37101046.027    22684741.398    28915154.1544   22684735.0164
  -5806689.496    21557737.752    -4512260.9394   21557733.0544
  -2294454.434    22276054.879    -1750753.9294   22276051.8104
  -5442892.977    21544423.844    -4233857.5744   21544418.0484
 05  4  2  0  2  0.0000000  0  8G 3G 7G 8G11G19G20G24G28
  56517887.699    24880771.815    44110451.8434   24880770.5184
   -734290.188    24353729.970     -570601.0474   24353726.3434
  18546510.973    23514326.477    14456403.0244   23514323.5444
   8107054.191    20386602.367     6327608.6094   20386595.9754
  37227025.230    22708714.117    29013319.7324   22708707.9744
  -5820107.273    21555184.442    -4522716.3204   21555180.0484
  -2294413.250    22276062.642    -1750721.8124   22276058.6514
  -5440251.574    21544926.408    -4231799.3274   21544921.1694
 05  4  2  0  2 30.0000000  0  8G 3G 7G 8G11G19G20G24G28
  56666687.078    24909087.416    44226399.3054   24909086.2644
   -745145.598    24351664.260     -579059.8464   24351661.0194
  18687637.520    23541182.414    14566371.6674   23541179.4614
   8206525.172    20405530.778     6405118.4534   20405524.7714
  37353173.723    22732719.803    29111617.2124   22732714.0304
  -5833123.492    21552707.814    -4532858.8154   21552702.9344
  -2294067.629    22276128.137    -1750452.4604   22276124.9674
  -5437175.293    21545511.578    -4229402.2344   21545506.1014
 05  4  2  0  3  0.0000000  0  8G 3G 7G 8G11G19G20G24G28
  56815578.539    24937420.419    44342418.4984   24937419.6834
   -756031.555    24349592.936     -587542.3624   24349588.8534
  18829005.387    23568084.186    14676528.4284   23568080.6504
   8306286.273    20424514.692     6482854.3584   20424508.7644
  37479491.645    22756757.091    29210046.7194   22756751.0324
  -5845735.461    21550307.919    -4542686.3024   21550303.0914
  -2293417.391    22276252.249    -1749945.7574   22276248.6384
  -5433661.750    21546180.491    -4226664.4134   21546174.6364
 05  4  2  0  3 30.0000000  0  8G 3G 7G 8G11G19G20G24G28
  56964561.695    24965770.743    44458509.1714   24965769.9494
   -766948.078    24347515.329     -596048.7784   24347511.5334
  18970610.977    23595031.101    14786870.4314   23595027.0154
   8406335.594    20443553.428     6560814.8584   20443547.3604
  37605978.746    22780826.437    29308608.0514   22780821.4674
  -5857941.027    21547985.089    -4552197.1074   21547980.3204
  -2292462.520    22276433.621    -1749201.6714   22276429.9724
  -5429708.961    21546932.966    -4223584.3234   21546927.5024
 05  4  2  0  4  0.0000000  0  8G 3G 7G 8G11G19G20G24G28
  57113637.250    24994138.979    44574671.7714   24994138.5524
   -777893.281    24345432.728     -604577.4924   24345429.1194
  19112452.328    23622022.472    14897396.1004   23622018.6604
   8506672.949    20462646.995     6638999.8004   20462640.9934
  37732636.438    22804928.949    29407302.2694   22804923.8394
  -5869736.148    21545740.343    -4561388.0874   21545735.5024
  -2291201.461    22276673.451    -1748219.0154   22276670.3564
  -5425313.270    21547768.975    -4220159.1104   21547763.8974
 05  4  2  0  4 30.0000000  0  8G 3G 7G 8G11G19G20G24G28
  57262802.867    25022524.247    44690904.6694   25022523.1234
   -788868.871    24343343.919     -613129.8644   24343340.4204
  19254523.785    23649057.875    15008101.0764   23649053.9664
   8607294.945    20481794.904     6717406.5214   20481788.7554
  37859462.973    22829063.546    29506128.0774   22829056.9194
  -5881120.152    21543574.550    -4570258.7124   21543569.5454
  -2289636.145    22276971.803    -1746999.2764   22276967.9234
  -5420474.316    21548689.872    -4216388.5024   21548684.4414
 05  4  2  0  5  0.0000000  0  8G 3G 7G 8G11G19G20G24G28
  57412061.961    25050927.647    44807210.3584   25050926.2574
   -799870.773    24341250.124     -621702.7604   24341246.5664
  19396825.562    23676137.243    15118985.5094   23676133.6734
   8708203.430    20500996.814     6796036.4894   20500990.9274
  37986461.875    22853230.310    29605088.2104   22853224.9094
  -5892086.980    21541487.514    -4578804.2654   21541482.5624
  -2287762.750    22277328.374    -1745539.4784   22277324.6464
  -5415186.461    21549696.030    -4212268.0954   21549690.7344
 05  4  2  0  5 30.0000000  0  8G 3G 7G 8G11G19G20G24G28
  57561411.336    25079347.614    44923586.4184   25079346.9384
   -810901.188    24339151.032     -630297.8894   24339147.8424
  19539352.047    23703258.652    15230045.0204   23703255.7344
   8809394.398    20520253.154     6874886.5764   20520246.8874
  38113630.680    22877429.946    29704180.7504   22877423.8834
  -5902636.918    21539479.574    -4587024.9654   21539474.4374
  -2285583.863    22277742.655    -1743841.6274   22277739.6754
  -5409449.727    21550788.011    -4207797.9194   21550782.3394
 05  4  2  0  6  0.0000000  0  8G 3G 7G 8G11G19G20G24G28
  57710852.559    25107785.622    45040034.0534   25107784.7614
   -821957.930    24337047.013     -638913.5294   24337044.0684
  19682101.539    23730422.702    15341278.3814   23730419.6714
   8910868.281    20539562.664     6953957.1234   20539556.9654
  38240971.461    22901662.270    29803407.2934   22901656.3594
  -5912765.488    21537552.581    -4594917.3284   21537547.6344
  -2283097.180    22278216.220    -1741903.9414   22278212.1374
  -5403260.152    21551965.841    -4202974.8724   21551959.9704
 05  4  2  0  6 30.0000000  0  8G 3G 7G 8G11G19G20G24G28
  57860386.328    25136241.191    45156553.7194   25136240.0604
   -833039.305    24334939.048     -647548.3674   24334934.8474
  19825071.625    23757629.274    15452683.5664   23757626.5174
   9012624.582    20558926.433     7033247.7324   20558920.5594
  38368485.258    22925927.070    29902768.6444   22925921.8604
  -5922469.082    21535705.615    -4602478.5514   21535700.4084
  -2280301.316    22278747.978    -1739725.3474   22278744.3554
  -5396614.457    21553230.263    -4197796.4064   21553224.7244
 05  4  2  0  7  0.0000000  0  8G 3G 7G 8G11G19G20G24G28
  58010010.094    25164713.815    45273143.5354   25164712.1174
   -844147.137    24332825.037     -656203.8094   24332821.3824
  19968256.738    23784876.634    15564256.3354   23784873.5014
   9114659.625    20578343.122     7112755.5384   20578337.1114
  38496169.941    22950224.541    30002263.1614   22950218.7774
  -5931747.438    21533939.899    -4609708.4014   21533934.9344
  -2277198.652    22279338.441    -1737307.6864   22279334.2254
  -5389512.477    21554581.701    -4192262.3904   21554576.3924
 05  4  2  0  7 30.0000000  0  8G 3G 7G 8G11G19G20G24G28
  58159725.750    25193204.401    45389804.9074   25193203.4234
   -855278.754    24330706.854     -664877.7574   24330703.2154
  20111655.570    23812164.963    15675995.6594   23812160.9444
   9216974.133    20597813.119     7192481.1324   20597806.7004
  38624027.922    22974555.240    30101892.7004   22974549.3864
  -5940595.715    21532256.103    -4616603.1394   21532251.4014
  -2273786.859    22279987.313    -1734649.1504   22279983.7294
  -5381949.828    21556020.982    -4186369.4134   21556015.6294
 05  4  2  0  8  0.0000000  0  8G 3G 7G 8G11G19G20G24G28
  58309532.172    25221710.899    45506537.1254   25221711.0134
   -866434.672    24328583.369     -673570.7134   24328579.6684
  20255263.730    23839492.853    15787898.0654   23839488.8064
   9319565.762    20617335.343     7272422.6374   20617329.4484
  38752058.207    22998918.979    30201656.4834   22998912.5494
  -5949012.418    21530654.610    -4623161.5854   21530650.1024
  -2270066.797    22280695.497    -1731750.3884   22280692.1824
  -5373925.055    21557547.816    -4180116.3434   21557542.5644
 05  4  2  0  8 30.0000000  0  8G 3G 7G 8G11G19G20G24G28
  58459428.387    25250235.669    45623339.2544   25250234.3694
   -877614.797    24326455.640     -682282.4944   24326452.1604
  20399077.684    23866859.427    15899960.8244   23866855.8304
   9422432.375    20636910.141     7352578.4184   20636904.4734
  38880260.328    23023314.908    30301554.1614   23023309.0034
  -5956995.594    21529135.136    -4629382.1954   21529130.4134
  -2266038.586    22281462.202    -1728611.5004   22281458.4784
  -5365436.645    21559163.278    -4173501.9874   21559157.4044
 05  4  2  0  9  0.0000000  0  8G 3G 7G 8G11G19G20G24G28
  58609414.734    25278776.837    45740211.6524   25278777.0104
   -888817.855    24324324.388     -691012.1434   24324320.8684
  20543094.492    23894264.918    16012181.6584   23894261.0974
   9525573.273    20656537.347     7432947.9404   20656531.2104
  39008635.363    23047743.626    30401586.5664   23047738.2514
  -5964542.121    21527699.270    -4635262.5734   21527694.4904
  -2261701.398    22282287.154    -1725231.8694   22282284.0664
  -5356481.773    21560867.219    -4166524.1704   21560861.5704
 05  4  2  0  9 30.0010000  0  8G 3G 7G 8G11G19G20G24G28
  58759497.539    25307336.515    45857159.2464   25307336.6584
   -900042.406    24322188.403     -699758.5144   24322185.2794
  20687317.066    23921709.302    16124562.8494   23921706.3134
   9628992.129    20676217.344     7513534.0454   20676211.3744
  39137189.250    23072206.836    30501758.3734   23072201.2094
  -5971648.152    21526347.164    -4640799.7174   21526342.3324
  -2257053.434    22283171.627    -1721610.0634   22283168.4384
  -5347056.035    21562660.908    -4159179.4304   21562655.3394
 05  4  2  0 10  0.0010000  0  8G 3G 7G 8G11G19G20G24G28
  58909665.309    25335912.116    45974172.9494   25335912.1104
   -911287.949    24320048.415     -708521.2904   24320044.4844
  20831731.691    23949190.595    16237093.6754   23949187.6294
   9732679.371    20695948.361     7594329.2844   20695942.7634
  39265912.633    23096702.392    30602062.2724   23096696.8984
  -5978311.727    21525079.310    -4645992.0894   21525073.7694
  -2252096.051    22284115.177    -1717747.1444   22284111.6774
  -5337158.992    21564544.508    -4151467.4424   21564538.5334
 05  4  2  0 10 30.0010000  0  8G 3G 7G 8G11G19G20G24G28
  59059924.090    25364506.716    46091257.5824   25364505.8124
   -922552.938    24317904.488     -717299.1734   24317901.2404
  20976341.133    23976709.251    16349776.2774   23976706.2754
   9836639.254    20715731.341     7675336.9534   20715725.3344
  39394811.816    23121231.130    30702503.1444   23121225.3024
  -5984528.957    21523896.051    -4650836.6584   21523890.8174
  -2246827.188    22285117.761    -1713641.5174   22285114.1524
  -5326786.043    21566518.164    -4143384.6324   21566512.5024
 05  4  2  0 11  0.0010000  0  8G 3G 7G 8G11G19G20G24G28
  59210270.551    25393116.742    46208410.4804   25393116.6664
   -933839.750    24315756.756     -726094.1574   24315753.6294
  21121139.426    24004262.783    16462606.1024   24004260.2574
   9940866.242    20735564.824     7756552.7734   20735559.3274
  39523882.855    23145792.377    30803077.8864   23145786.8574
  -5990300.930    21522797.468    -4655334.2664   21522793.0084
  -2241249.977    22286178.939    -1709295.6084   22286175.4534
  -5315939.102    21568582.607    -4134932.4784   21568576.7254
 05  4  2  0 11 30.0010000  0  8G 3G 7G 8G11G19G20G24G28
  59360706.453    25421744.638
   -945145.820    24313604.987     -734904.0384   24313601.7094
  21266124.891    24031852.760    16575581.7444   24031849.8114
  10045361.738    20755449.932     7837977.8234   20755443.8084
  39653128.770    23170386.980    30903788.9364   23170381.3294
  -5995622.551    21521784.791    -4659480.9584   21521779.8104
  -2235362.133    22287299.644    -1704707.6384   22287295.5134
  -5304612.875    21570737.589    -4126106.8364   21570731.7114
 05  4  2  0 12  0.0010000  0  8G 3G 7G 8G11G19G20G24G28
  59511229.211    25450386.230
   -956472.832    24311450.249     -743730.2464   24311446.3164
  21411291.969    24059478.124    16688698.8804   24059474.6434
  10150121.695    20775384.982     7919608.9334   20775379.4934
  39782547.129    23195014.878    31004634.3264   23195009.1414
  -6000494.051    21520857.507    -4663276.9054   21520853.0534
  -2229166.098    22288478.192    -1699879.5474   22288474.5524
  -5292807.637    21572984.090    -4116907.9634   21572978.0164
 05  4  2  0 12 30.0010000  0  8G 3G 7G 8G11G19G20G24G28
  59661842.332    25479047.763
   -967816.410    24309291.660     -752569.3954   24309287.9804
  21556641.230    24087136.847    16801957.9854   24087133.8914
  10255148.539    20795370.992     8001447.9964   20795365.4214
  39912141.547    23219675.460    31105616.9314   23219670.3744
  -6004909.293    21520017.419    -4666717.3254   21520012.4694
  -2222658.023    22289716.639    -1694808.3054   22289713.5654
  -5280517.883    21575323.052    -4107331.5404   21575317.2244
 05  4  2  0 13  0.0010000  0  8G 3G 7G 8G11G19G20G24G28
  59812543.109    25507724.337
   -979178.215    24307128.813     -761422.7494   24307125.6924
  21702166.836    24114829.772    16915354.4974   24114826.1994
  10360438.348    20815407.101     8083491.9724   20815401.1474
  40041910.176    23244370.359    31206735.2854   23244364.0534
  -6008868.008    21519264.447    -4669802.0094   21519259.2194
  -2215839.688    22291014.084    -1689495.2864   22291010.9124
  -5267743.582    21577753.608    -4097377.5264   21577747.9934
 05  4  2  0 13 30.0010000  0  8G 3G 7G 8G11G19G20G24G28
  59963332.133    25536418.553
   -990556.730    24304963.657     -770289.1544   24304959.8104
  21847866.559    24142555.205    17028886.7144   24142552.3584
  10465991.023    20835493.106     8165740.7854   20835487.1444
  40171854.059    23269097.236    31307990.1994   23269091.9304
  -6012367.121    21518598.426    -4672528.5604   21518593.7944
  -2208710.289    22292370.954    -1683939.9024   22292367.2794
  -5254481.688    21580277.179    -4087043.5834   21580271.9264
 05  4  2  0 14  0.0010000  0  8G 3G 7G 8G11G19G20G24G28
  60114208.637    25565129.826
  -1001951.590    24302795.784     -779168.2494   24302792.0364
  21993736.711    24170312.802    17142551.7344   24170310.0544
  10571804.520    20855628.740     8248192.8344   20855623.2094
  40301972.801    23293857.872    31409381.3554   23293852.6594
  -6015404.336    21518020.359    -4674895.1984   21518015.7084
  -2201270.094    22293786.754    -1678142.3304   22293783.2064
  -5240730.273    21582894.157    -4076328.1834   21582888.5874
 05  4  2  0 14 30.0010000  0  8G 3G 7G 8G11G19G20G24G28
  60265172.391    25593859.860
  -1013362.262    24300624.357     -788059.6544   24300620.3324
  22139773.926    24198103.086    17256346.8524   24198099.5454
  10677877.523    20875813.751     8330847.0984   20875808.1014
  40432266.551    23318652.367    31510908.8614   23318646.8614
  -6017977.293    21517530.867    -4676900.0754   21517525.8584
  -2193518.996    22295262.054    -1672102.5164   22295257.4734
  -5226487.348    21585604.390    -4065229.8114   21585598.8424
 05  4  2  0 15  0.0010000  0  8G 3G 7G 8G11G19G20G24G28
  60416220.8711   25622603.521
  -1024790.172    24298449.218     -796964.5074   24298446.0194
  22285972.887    24225924.412    17370268.0634   24225920.5204
  10784206.609    20896047.440     8413700.9044   20896041.7994
  40562733.406    23343479.793    31612571.2864   23343473.9604
  -6020085.875    21517129.480    -4678543.0934   21517124.2144
  -2185459.117    22296795.157    -1665822.0844   22296792.2454
  -5211752.820    21588408.437    -4053748.3714   21588402.7324
 05  4  2  0 15 30.0010000  0  8G 3G 7G 8G11G19G20G24G28
  60567355.3911   25651362.207
  -1036233.039    24296272.144     -805881.0464   24296268.6584
  22432331.262    24253775.398    17484313.4674   24253772.8854
  10890792.098    20916330.107     8496754.5044   20916324.4604
  40693375.223    23368339.893    31714370.0504   23368335.1094
  -6021726.047    21516817.359    -4679821.1244   21516812.3404
  -2177088.734    22298388.393    -1659299.6954   22298385.0754
  -5196522.953    21591306.651    -4041880.9364   21591300.7184
 05  4  2  0 16  0.0010000  0  8G 3G 7G 8G11G19G20G24G28
  60718575.4731   25680140.142
  -1047690.348    24294091.719     -814808.8314   24294087.9754
  22578846.027    24281655.792    17598480.8014   24281653.2544
  10997632.074    20936660.936     8580006.4114   20936655.1004
  40824191.766    23393233.410    31816304.9504   23393228.5284
  -6022895.645    21516594.801    -4680732.4824   21516589.4344
  -2168407.934    22300039.929    -1652535.4314   22300036.9354
  -5180795.836    21594299.186    -4029626.0294   21594293.5624
 05  4  2  0 16 30.0010000  0  7G 7G 8G11G19G20G24G28
  -1059163.016    24291908.839     -823748.5624   24291904.4724
  22725512.715    24309566.131    17712766.4194   24309563.6934
  11104723.863    20957040.043     8663454.5454   20957033.9844
  40955181.645    23418160.001    31918374.9284   23418154.1024
  -6023593.934    21516461.746    -4681276.5894   21516456.8204
  -2159418.309    22301750.789    -1645530.5274   22301747.3494
  -5164570.875    21597386.665    -4016983.2054   21597381.0744
 05  4  2  0 17  0.0010000  0  7G 7G 8G11G19G20G24G28
  -1070647.402    24289723.439     -832697.4114   24289719.2144
  22872330.609    24337504.725    17827169.9774   24337501.6154
  11212069.000    20977467.242     8747100.0704   20977461.3154
  41086347.898    23443120.705    32020582.3404   23443114.1384
  -6023815.785    21516419.889    -4681449.4294   21516414.9254
  -2150116.672    22303520.905    -1638282.4724   22303517.8594
  -5147843.016    21600569.903    -4003948.5104   21600564.7204
 05  4  2  0 17 30.0010000  0  7G 7G 8G11G19G20G24G28
  -1082138.840    24287536.621     -841651.7654   24287532.6924
  23019300.473    24365472.034    17941691.8594   24365468.3574
  11319670.250    20997943.274     8830945.1874   20997937.2044
  41217694.707    23468114.628    32122930.4394   23468108.3414
  -6023554.871    21516469.354    -4681246.0954   21516464.3424
  -2140499.219    22305351.161    -1630788.3574   22305347.3704
  -5130606.195    21603849.935    -3990517.2234   21603844.2604
 05  4  2  0 18  0.0010000  0  7G 7G 8G11G19G20G24G28
  -1093636.488    24285348.527     -850610.9484   24285345.1284
  23166419.148    24393467.574    18056329.7774   24393464.8334
  11427526.082    21018467.374     8914988.6754   21018461.4924
  41349222.273    23493143.852    32225419.3884   23493138.2634
  -6022808.844    21516611.353    -4680664.7584   21516606.1744
  -2130566.051    22307241.665    -1623048.1944   22307237.8954
  -5112858.195    21607227.014    -3976687.6034   21607221.3974
 05  4  2  0 18 30.0010000  0  7G 7G 8G11G19G20G24G28
  -1105139.438    24283159.932     -859574.3094   24283155.8244
  23313683.238    24421490.540    18171080.8244   24421487.0644
  11535635.602    21039039.976     8999229.8364   21039034.0934
  41480930.953    23518207.171    32328049.4664   23518200.7444
  -6021575.133    21516845.964    -4679703.4144   21516841.1084
  -2120316.625    22309192.080    -1615061.6074   22309188.2974
  -5094597.098    21610702.337    -3962458.1774   21610696.7184
 05  4  2  0 19  0.0010000  0  7G 7G 8G11G19G20G24G28
  -1116649.312    24280968.933     -868543.0054   24280965.7844
  23461087.062    24449541.633    18285940.8594   24449537.2384
  11643995.008    21059660.063     9083665.7284   21059654.1604
  41612818.434    23543304.738    32430818.8834   23543299.1214
  -6019854.004    21517173.609    -4678362.2534   21517168.3494
  -2109753.469    22311201.908    -1606830.5474   22311197.6374
  -5075823.035    21614274.669    -3947829.0334   21614269.0184
 05  4  2  0 19 30.0010000  0  8G 1G 7G 8G11G19G20G24G28
     18720.4061   25580596.290       11852.2485   25580594.3214
  -1128165.871    24278777.760     -877516.9454   24278774.6224
  23608627.359    24477617.218    18400907.2734   24477614.6344
  11752602.430    21080327.229     9168294.8754   21080321.5614
  41744884.465    23568435.906    32533727.4414   23568430.4974
  -6017643.555    21517594.146    -4676639.8074   21517589.8994
  -2098877.371    22313271.452    -1598355.6474   22313267.4964
  -5056534.371    21617945.514    -3932798.9114   21617939.6544
 05  4  2  0 20  0.0010000  0  8G 1G 7G 8G11G19G20G24G28
                  25584132.427       26329.9265   25584130.9014
  -1139686.953    24276585.846     -886494.4324   24276581.6554
  23756302.070    24505718.461    18515978.4304   24505716.2994
  11861457.988    21101041.963     9253117.3734   21101036.4114
  41877130.418    23593601.771    32636776.1674   23593595.9414
  -6014940.281    21518108.732    -4674533.3404   21518103.2914
  -2087686.691    22315401.205    -1589635.6174   22315397.1154
  -5036728.129    21621714.276    -3917365.4654   21621708.8424
 05  4  2  0 20 30.0010000  0  8G 1G 7G 8G11G19G20G24G28
     56160.0231   25587720.995       41025.9385   25587720.5904
  -1151219.586    24274390.853     -895480.8654   24274387.5274
  23904099.777    24533844.299    18631145.3874   24533841.3044
  11970552.586    21121801.741     9338126.1274   21121796.1074
  42009548.570    23618800.064    32739959.0934   23618793.9954
  -6011749.848    21518715.501    -4672047.2704   21518710.8824
  -2076189.184    22317588.759    -1580676.5084   22317584.8514
  -5016409.582    21625580.998    -3901532.8494   21625575.2224
 05  4  2  0 21  0.0010000  0  8G 1G 7G 8G11G19G20G24G28
     75301.824    25591364.110       55941.6604   25591362.4864
  -1162764.008    24272194.101     -904476.4714   24272190.5244
  24052016.414    24561992.110    18746404.9734   24561988.8584
  12079883.512    21142606.821     9423319.0424   21142601.1674
  42142138.062    23644031.253    32843275.5294   23644024.8894
  -6008070.930    21519415.714    -4669180.5674   21519410.5714
  -2064385.770    22319834.960    -1571479.0234   22319830.9614
  -4995577.895    21629544.875    -3885300.3724   21629539.3424
 05  4  2  0 21 30.0020000  0  8G 1G 7G 8G11G19G20G24G28
     94727.703    25595060.290       71078.7504   25595059.5954
  -1174320.961    24269995.070     -913481.8814   24269990.8264
  24200053.023    24590162.633    18861758.1764   24590158.1594
  12189452.129    21163457.275     9508697.1754   21163451.5494
  42274902.332    23669295.208    32946728.1444   23669289.8344
  -6003902.445    21520208.636    -4665932.3744   21520203.5364
  -2052277.188    22322139.323    -1562043.7604   22322135.0484
  -4974231.738    21633607.264    -3868666.9974   21633601.4444
 05  4  2  0 22  0.0020000  0  8G 1G 7G 8G11G19G20G24G28
    114440.012    25598810.836       86438.9774   25598809.6444
  -1185887.938    24267793.946     -922495.0774   24267789.4694
  24348196.730    24618353.367    18977194.7624   24618349.9554
  12299251.074    21184351.019     9594254.7844   21184345.4014
  42407833.570    23694591.088    33050310.8754   23694585.3734
  -5999241.609    21521095.923    -4662300.5314   21521090.9964
  -2039863.586    22324501.378    -1552370.7984   22324498.1004
  -4952369.504    21637767.342    -3851631.5044   21637761.6684
 05  4  2  0 22 30.0020000  0  8G 1G 7G 8G11G19G20G24G28
    134442.992    25602618.566      102025.6484   25602616.5684
  -1197463.176    24265590.725     -931514.7584   24265587.3944
  24496450.668    24646565.426    19092717.2624   24646561.4414
  12409283.559    21205289.702     9679994.3624   21205284.0184
  42540937.465    23719920.125    33154028.1314   23719914.6264
  -5994084.793    21522077.011    -4658282.2144   21522072.2544
  -2027143.074    22326921.711    -1542458.6994   22326918.3334
  -4929987.246    21642026.469    -3834190.7764   21642021.0664
 05  4  2  0 23  0.0020000  0  8G 1G 7G 8G11G19G20G24G28
    154740.199    25606480.149      117841.6544   25606479.5004
  -1209045.336    24263386.339     -940539.7574   24263383.3264
  24644812.285    24674796.756    19208323.6174   24674793.6724
  12519549.242    21226272.197     9765915.6654   21226266.5264
  42674215.004    23745281.336    33257880.6934   23745276.4804
  -5988429.199    21523153.292    -4653875.2344   21523148.0634
  -2014115.172    22329400.624    -1532307.0614   22329397.2564
  -4907082.574    21646385.306    -3816342.9884   21646379.0804
 05  4  2  0 23 30.0020000  0  8G 1G 7G 8G11G19G20G24G28
    175335.121    25610399.702      133889.5684   25610398.8564
  -1220632.480    24261182.023     -949568.6954   24261178.2344
  24793279.383    24703050.302    19324012.1094   24703046.2324
  12630047.645    21247299.404     9852018.3124   21247293.5964
  42807667.145    23770677.074    33361869.2854   23770671.6524
  -5982271.777    21524325.226    -4649077.2324   21524320.0944
  -2000778.941    22331938.854    -1521915.1764   22331934.7854
  -4883652.512    21650843.815    -3798085.7924   21650838.2484
 05  4  2  0 24  0.0020000  0  8G 1G 7G 8G11G19G20G24G28
    196232.258    25614375.301      150173.1294   25614375.6074
  -1232222.055    24258976.277     -958599.4984   24258972.3584
  24941850.734    24731322.144    19439781.9264   24731318.6464
  12740779.402    21268371.292     9938302.7654   21268365.3944
  42941295.836    23796105.996    33465995.4764   23796101.4344
  -5975608.723    21525592.775    -4643885.2144   21525587.5244
  -1987132.855    22334535.336    -1511281.8264   22334531.3814
  -4859693.164    21655403.122    -3779416.1744   21655397.3274
 05  4  2  0 24 30.0020000  0  8G 1G 7G 8G11G19G20G24G28
    217431.727    25618410.054      166692.1944   25618409.7574
  -1243815.363    24256770.379     -967633.2144   24256766.5914
  25090520.699    24759611.853    19555628.5904   24759609.7414
  12851740.863    21289486.459    10024766.2354   21289480.9914
  43075098.809    23821567.536    33570257.4814   23821562.1414
  -5968440.148    21526957.039    -4638299.2924   21526951.8664
  -1973179.250    22337191.018    -1500408.8624   22337186.6404
  -4835205.043    21660062.916    -3760334.5114   21660057.4664
 05  4  2  0 25  0.0020000  0  8G 1G 7G 8G11G19G20G24G28
    238935.020    25622502.383      183447.9204   25622502.2174
  -1255412.934    24254562.493     -976670.2564   24254559.7364
  25239284.621    24787919.639    19671548.4734   24787918.7274
  12962929.473    21310645.085    10111406.6874   21310639.1934
  43209075.074    23847062.734    33674654.5154   23847058.1154
  -5960765.027    21528417.523    -4632318.6654   21528412.4484
  -1958919.223    22339904.410    -1489297.1344   22339901.0944
  -4810187.578    21664823.806    -3740840.3844   21664818.4134
 05  4  2  0 25 30.0020000  0  8G 1G 7G 8G11G19G20G24G28
    260747.012    25626653.197      200444.2294   25626652.5904
  -1267011.480    24252356.114     -985708.0474   24252352.0194
  25388142.012    24816248.873    19787541.1484   24816244.7664
  13074346.398    21331847.038    10198225.0574   21331841.2944
  43343226.961    23872591.150    33779188.3684   23872585.8684
  -5952579.477    21529975.195    -4625940.2984   21529970.0434
  -1944350.578    22342676.855    -1477944.9214   22342673.0954
  -4784636.594    21669685.848    -3720930.5134   21669680.2244
 05  4  2  0 26  0.0020000  0  8G 1G 7G 8G11G19G20G24G28
    282869.578    25630862.764      217682.6054   25630861.6634
  -1278610.852    24250148.659     -994746.4934   24250145.3274
  25537088.492    24844591.186    19903603.2854   24844588.4124
  13185989.480    21353091.984    10285219.6464   21353085.9074
  43477553.832    23898152.405    33883858.5894   23898146.9194
  -5943881.969    21531630.503    -4619162.9844   21531625.0824
  -1929474.012    22345507.471    -1466352.7654   22345504.1384
  -4758551.199    21674649.964    -3700604.2264   21674643.9534
 05  4  2  0 26 30.0020000  0  8G 1G 7G 8G11G19G20G24G28
    305307.281    25635132.313      235166.5204   25635131.2044
  -1290208.137    24247941.777    -1003783.3134   24247937.8604
  25686123.062    24872952.609    20019734.0864   24872949.3904
  13297859.562    21374380.140    10372391.1274   21374374.0604
  43612057.754    23923747.717    33988666.7554   23923741.9964
  -5934668.551    21533383.240    -4611983.6864   21533378.0484
  -1914287.926    22348397.483    -1454519.4344   22348393.4534
  -4731927.273    21679715.838    -3679858.3174   21679710.3024
 05  4  2  0 27  0.0020000  0  8G 1G 7G 8G11G19G20G24G28
    328059.996    25639462.071      252895.8274   25639461.4634
  -1301805.113    24245734.717    -1012819.8864   24245731.5924
  25835240.062    24901329.438    20135929.0664   24901325.9224
  13409952.934    21395710.738    10459736.6024   21395704.6254
  43746736.367    23949376.175    34093611.0734   23949371.2064
  -5924939.867    21535234.977    -4604402.8784   21535229.8044
  -1898795.129    22351345.610    -1442447.0904   22351341.7174
  -4704765.910    21684884.789    -3658693.6054   21684879.0174
 05  4  2  0 27 30.0020000  0  8G 1G 7G 8G11G19G20G24G28
    351131.859    25643852.840      270873.9184   25643850.2084
  -1313399.285    24243528.708    -1021854.2784   24243524.6774
  25984437.363    24929719.010    20252186.5664   24929717.1274
  13522269.559    21417083.871    10547256.0354   21417078.3914
  43881591.062    23975038.426    34198692.5924   23975032.8304
  -5914692.312    21537185.027    -4596417.7574   21537179.7784
  -1882993.984    22354352.626    -1430134.4884   22354348.5134
  -4677063.516    21690156.557    -3637107.3284   21690150.4504
 05  4  2  0 28  0.0020000  0  8G 1G 7G 8G11G19G20G24G28
    374524.234    25648304.390      289101.8594   25648302.7634
  -1324991.016    24241323.195    -1030886.7704   24241318.9274
  26133711.129    24958123.664    20368503.6604   24958121.4514
  13634806.855    21438498.973    10634947.4184   21438493.2724
  44016620.824    24000733.597    34303910.5034   24000728.5904
  -5903925.000    21539233.857    -4588027.6224   21539228.8764
  -1866885.676    22357417.901    -1417582.5324   22357414.1474
  -4648819.715    21695530.931    -3615099.1644   21695525.4734
 05  4  2  0 28 30.0020000  0  8G 1G 7G 8G11G19G20G24G28
    398241.855    25652816.809      307583.1524   25652816.7654
  -1336577.227    24239117.907    -1039914.9474   24239114.2674
  26283060.3241   24986547.477    20484879.5665   24986542.7404
  13747566.090    21459956.705    10722811.7504   21459950.5264
  44151827.930    24026463.248    34409266.6364   24026457.1734
  -5892634.043    21541382.453    -4579229.4594   21541377.2444
  -1850468.164    22360541.913    -1404789.6674   22360538.2914
  -4620030.586    21701009.345    -3592666.0784   21701003.6704
 05  4  2  0 29  0.0020000  0  8G 1G 7G 8G11G19G20G24G28
    422287.434    25657392.574      326320.0184   25657392.6914
  -1348156.598    24236914.555    -1048937.8404   24236910.9684
                  25014980.540    20601311.4575   25014977.8984
  13860546.219    21481455.910    10810848.1994   21481450.1514
  44287212.375    24052225.808    34514760.9504   24052220.0954
  -5880817.387    21543631.070    -4570021.6584   21543625.5144
  -1833741.645    22363724.778    -1391755.9754   22363721.1784
  -4590694.160    21706591.795    -3569806.5144   21706586.2954
 05  4  2  0 29 30.0020000  0  8G 1G 7G 8G11G19G20G24G28
    446660.840    25662030.672      345312.3524   25662029.3904
  -1359730.891    24234711.321    -1057956.6934   24234708.4734
  26581968.8791   25043426.431    20717795.2075   25043424.7904
  13973743.453    21502996.758    10899053.8164   21502990.9134
  44422771.988    24078021.268    34620391.7524   24078016.9244
  -5868475.688    21545979.675    -4560404.7354   21545974.4964
  -1816709.012    22366965.758    -1378483.7874   22366962.3594
  -4560811.340    21712278.352    -3546521.1974   21712272.7854
 05  4  2  0 30  0.0020000  0  8G 1G 7G 8G11G19G20G24G28
    471365.930    25666732.384      364563.2394   25666730.5314
  -1371297.996    24232510.556    -1066970.0064   24232506.9404
                  25071885.516
  14087157.656    21524578.490    10987428.5054   21524573.0734
  44558508.113    24103851.669    34726160.0494   24103846.7174
  -5855605.660    21548428.673    -4550376.1254   21548423.2474
  -1799368.941    22370265.227    -1364972.0234   22370262.0744
  -4530379.395    21718069.479    -3522807.9954   21718063.6264
 05  4  2  0 30 30.0020000  0  7G 1G 7G11G19G20G24G28
    496403.164    25671496.047      384072.8674   25671495.8864
  -1382858.758    24230311.230    -1075978.3664   24230307.4834
  14200785.664    21546201.154    11075969.7934   21546195.3354
  44694418.574    24129714.553    34832064.2514   24129708.6884
  -5842207.383    21550978.204    -4539935.8814   21550973.1724
  -1781723.613    22373623.545    -1351222.4094   22373619.9354
  -4499398.438    21723964.939    -3498666.9874   21723959.1464
 05  4  2  0 31  0.0020000  0  7G 1G 7G11G19G20G24G28
    521778.711    25676325.687      403846.1094   25676324.0594
  -1394408.453    24228112.813    -1084978.1094   24228109.1074
  14314629.836    21567865.158    11164679.5214   21567859.5704
  44830507.336    24155611.558    34938107.3914   24155606.2824
  -5828275.402    21553629.233    -4529079.7804   21553624.1764
  -1763769.340    22377039.928    -1337232.0434   22377036.2744
  -4467862.883    21729965.892    -3474093.8234   21729960.2184
 05  4  2  0 31 30.0020000  0  7G 1G 7G11G19G20G24G28
    547495.551    25681218.914      423885.3104   25681217.7104
  -1405945.621    24225917.769    -1093968.0764   24225913.6944
  14428690.027    21589570.277    11253557.5714   21589564.5524
  44966774.855    24181542.408    35044289.8074   24181537.6404
  -5813807.562    21556382.537    -4517806.1194   21556377.1044
  -1745505.965    22380515.586    -1323000.8214   22380512.2064
  -4435770.902    21736072.788    -3449087.0884   21736067.3794
 05  4  2  0 32  0.0020000  0  7G 1G 7G11G19G20G24G28
    573554.500    25686177.672      444191.1474   25686177.3954
  -1417471.082    24223724.559    -1102948.9444   24223720.9584
  14542962.844    21611315.665    11342601.3094   21611310.0184
  45103219.645    24207507.358    35150610.3464   24207502.0254
  -5798803.555    21559237.693    -4506114.6634   21559232.6474
  -1726935.344    22384049.440    -1308530.1884   22384045.8274
  -4403122.457    21742285.645    -3423646.7304   21742279.8214
 05  4  2  0 32 30.0020000  0  7G 1G 7G11G19G20G24G28
    599956.098    25691201.369      464763.9924   25691200.5304
  -1428985.613    24221533.197    -1111921.2614   24221529.6374
  14657445.191    21633100.939    11431808.3124   21633094.9894
  45239839.820    24233505.190    35257067.5724   24233500.1474
  -5783263.473    21562194.844    -4494005.4864   21562189.9174
  -1708059.648    22387640.695    -1293821.8314   22387636.7864
  -4369917.938    21748604.265    -3397773.0824   21748598.4864
 05  4  2  0 33  0.0030000  0  7G 1G 7G11G19G20G24G28
    626702.633    25696291.054      485605.6224   25696290.3854
  -1440489.496    24219344.034    -1120885.3134   24219340.6514
  14772138.762    21654926.337    11521179.9134   21654920.4064
  45376638.961    24259537.041    35363664.2314   24259532.2154
  -5767186.277    21565254.117    -4481477.7784   21565249.1054
  -1688879.168    22391291.041    -1278875.9764   22391287.4354
  -4336155.371    21755028.968    -3371464.5804   21755023.4514
 05  4  2  0 33 30.0030000  0  7G 1G 7G11G19G20G24G28
    653795.582    25701446.263      506717.0844   25701445.7744
  -1451980.273    24217157.107    -1129839.1244   24217153.6514
  14887035.906    21676790.604    11610710.1434   21676784.7154
  45513608.848    24285601.553    35470393.9484   24285596.1324
  -5750570.238    21568416.058    -4468530.1874   21568410.6044
  -1669394.574    22394998.762    -1263693.1554   22394995.0174
  -4301834.887    21761560.007    -3344721.3454   21761554.4654
 05  4  2  0 34  0.0030000  0  7G 1G 7G11G19G20G24G28
    681237.680    25706668.678      528100.7114   25706667.4694
  -1463457.773    24214973.506    -1138782.6184   24214969.7004
  15002138.438    21698693.523    11700400.4134   21698687.9694
  45650753.320    24311699.484    35577259.6864   24311694.4534
  -5733413.652    21571680.727    -4455161.4074   21571675.5704
  -1649606.383    22398764.267    -1248273.7574   22398760.2014
  -4266954.492    21768197.393    -3317541.8254   21768191.7414
 05  4  2  0 34 30.0030000  0  7G 1G 7G11G19G20G24G28
    709032.312    25711957.163      549758.9904   25711957.0414
  -1474919.965    24212791.780    -1147714.1754   24212788.6214
  15117446.184    21720636.034    11790250.5944   21720630.3014
  45788073.477    24337830.644    35684262.3134   24337825.0104
  -5715714.039    21575049.074    -4441369.4784   21575044.0594
  -1629513.574    22402587.692    -1232616.9964   22402584.0184
  -4231511.445    21774942.182    -3289923.8694   21774936.3264
 05  4  2  0 35  0.0030000  0  7G 1G 7G11G19G20G24G28
    737181.785    25717314.385      571693.7774   25717313.4804
  -1486365.805    24210614.075    -1156632.9634   24210610.1254
  15232957.738    21742617.035    11880259.5814   21742611.4324
  45925569.594    24363995.639    35791402.0374   24363990.6434
  -5697469.594    21578520.764    -4427153.0034   21578515.5424
  -1609116.543    22406469.035    -1216723.1744   22406465.3944
  -4195504.293    21781794.028    -3261866.3454   21781788.0864
 05  4  2  0 35 30.0030000  0  7G 1G 7G11G19G20G24G28
    765689.543    25722738.328      593907.7504   25722737.9374
  -1497793.266    24208439.372    -1165537.4854   24208436.0464
  15348672.980    21764637.239    11970427.3204   21764631.1524
  46063242.332    24390194.061    35898679.4414   24390188.6974
  -5678677.766    21582096.682    -4412509.9974   21582091.3104
  -1588414.254    22410408.890    -1200591.5234   22410404.8564
  -4158930.672    21788754.010    -3233367.4154   21788747.9404
 05  4  2  0 36  0.0030000  0  7G 1G 7G11G19G20G24G28
    794557.285    25728232.185      616402.2054   25728231.4314
  -1509201.895    24206268.719    -1174427.3034   24206264.9564
  15464590.219    21786695.400    12060752.4304   21786689.6674
  46201091.141    24416425.193    36006094.0214   24416421.2634
  -5659337.531    21585777.053    -4397439.6714   21585772.0654
  -1567407.844    22414406.473    -1184222.8634   22414402.2934
  -4121789.887    21795821.214    -3204426.5474   21795815.3784
 05  4  2  0 36 30.0030000  0  7G 1G 7G11G19G20G24G28
    823786.867    25733793.714      639178.6454   25733792.7444
  -1520591.094    24204100.757    -1183301.9854   24204097.1314
  15580707.840    21808791.982    12151233.6884   21808786.0534
  46339115.703    24442690.774    36113645.5434   24442686.4294
  -5639447.688    21589562.089    -4381941.0724   21589556.6144
  -1546097.961    22418461.307    -1167617.7374   22418457.3434
  -4084080.859    21802997.206    -3175042.8914   21802991.5314
 05  4  2  0 37  0.0030000  0  7G 1G 7G11G19G20G24G28
    853380.820    25739425.331      662238.8964   25739424.8054
  -1531959.527    24201937.780    -1192160.4954   24201934.1084
  15697025.113    21830926.412    12241870.5224   21830920.5634
  46477316.383    24468989.314    36221334.3374   24468984.7274
  -5619006.426    21593451.808    -4366012.8034   21593446.8654
  -1524484.617    22422573.858    -1150776.1494   22422570.4864
  -4045801.781    21810281.437    -3145215.0324   21810275.9364
 05  4  2  0 37 30.0030000  0  7G 1G 7G11G19G20G24G28
    883341.961    25745127.146      685585.3944   25745125.5114
  -1543305.531    24199778.715    -1201001.5134   24199775.1204
  15813541.145    21853098.444    12332662.2294   21853092.9224
  46615693.453    24495321.861    36329160.5394   24495317.0804
  -5598011.691    21597446.747    -4349653.2484   21597441.3754
  -1502567.578    22426744.911    -1133697.9284   22426741.1144
  -4006951.184    21817674.414    -3114941.8444   21817668.9784
 05  4  2  0 38  0.0030000  0  7G 1G 7G11G19G20G24G28
    913665.141    25750897.620      709213.9064   25750896.1444
  -1554635.551    24197622.505    -1209830.0894   24197619.3194
  15930247.344    21875307.318    12423602.1174   21875301.4964
  46754239.223    24521686.458    36437118.1974   24521680.6074
  -5576469.508    21601546.125    -4332867.1234   21601541.0314
  -1480354.750    22430971.715    -1116389.2184   22430967.5024
  -3967534.848    21825174.950    -3084227.8094   21825169.4674
 05  4  2  0 38 30.0030000  0  7G 1G 7G11G19G20G24G28
    944351.070    25756737.342      733125.0704   25756736.1364
  -1565950.094    24195469.601    -1218646.5894   24195466.1494
  16047140.973    21897551.062    12514688.0314   21897545.5564
  46892952.262    24548082.546    36545206.2224   24548077.1674
  -5554379.828    21605749.693    -4315654.3804   21605744.4404
  -1457847.977    22435254.590    -1098851.4704   22435250.5594
  -3927553.195    21832783.307    -3053073.2764   21832778.0614
 05  4  2  0 39  0.0030000  0  7G 1G 7G11G19G20G24G28
    975403.035    25762645.323      757321.4814   25762643.3334
  -1577247.145    24193319.357    -1227449.4454   24193315.9794
  16164222.000    21919831.115    12605919.9954   21919825.2264
  47031833.680    24574510.852    36653425.4254   24574505.6704
  -5531740.305    21610057.694    -4298013.1724   21610052.5974
  -1435046.488    22439593.589    -1081084.0494   22439589.5374
  -3887003.883    21840499.736    -3021476.4034   21840493.8754
 05  4  2  0 39 30.0030000  0  7G 1G 7G11G19G20G24G28
   1006826.074    25768625.169      781807.0994   25768623.1744
  -1588522.621    24191174.326    -1236235.5124   24191170.3874
  16281491.953    21942146.700    12697299.1724   21942140.9544
  47170886.312    24600972.017    36761778.0624   24600967.1704
  -5508546.664    21614471.663    -4279940.2024   21614466.3954
  -1411947.828    22443989.156    -1063085.0824   22443985.4784
  -3845882.812    21848324.870    -2989434.0064   21848319.1004
 05  4  2  0 40  0.0030000  0  7G 1G 7G11G19G20G24G28
   1038626.082    25774675.554      806586.3344   25774674.4734
  -1599771.793    24189033.428    -1245001.0664   24189029.6254
  16398953.246    21964498.874    12788827.4434   21964493.1734
  47310113.641    24627466.208    36870266.7914   24627461.8164
  -5484793.668    21618991.727    -4261431.3564   21618986.4124
  -1388548.652    22448441.926    -1044851.9384   22448437.6904
  -3804185.137    21856259.585    -2956942.3084   21856253.8434
 05  4  2  0 40 30.0030000  0  7G 1G 7G11G19G20G24G28
   1070804.164    25780799.627      831660.1744   25780798.4094
  -1610994.684    24186897.575    -1253746.1234   24186893.9424
  16516603.777    21986886.897    12880503.1604   21986881.5274
  47449514.504    24653993.469    36978890.7584   24653988.5524
  -5460481.129    21623618.131    -4242486.5144   21623612.6774
  -1364850.637    22452951.320    -1026385.9464   22452947.4684
  -3761910.785    21864304.347    -2924001.2704   21864298.2294
 05  4  2  0 41  0.0030000  0  8G 1G 4G 7G11G19G20G24G28
   1103368.105    25786995.296      857034.7094   25786995.3274
                  25761852.915
  -1622184.609    24184768.276    -1262465.5254   24184764.2654
  16634448.035    22009312.041    12972329.8494   22009306.2754
  47589094.367    24680554.174    37087654.2164   24680549.2834
  -5435602.215    21628352.389    -4223100.3334   21628346.7164
  -1340848.406    22457518.695    -1007682.8904   22457515.0454
  -3719053.043    21872459.539    -2890605.6294   21872454.0464
 05  4  2  0 41 30.0030000  0  8G 1G 4G 7G11G19G20G24G28
   1136317.613    25793266.220      882709.7164   25793264.9134
    -28978.8161   25757848.515
  -1633342.902    24182644.818    -1271160.2394   24182640.9414
  16752482.414    22031773.695    13064304.6744   22031767.8374
  47728850.688    24707149.174    37196555.1654   24707143.5914
  -5410158.023    21633194.312    -4203273.6824   21633188.9804
  -1316544.770    22462143.765     -988744.9834   22462139.9644
  -3675613.000    21880725.711    -2856756.2554   21880720.5074
 05  4  2  0 42  0.0030000  0  8G 1G 4G 7G11G19G20G24G28
   1169656.258    25799610.508      908687.9454   25799609.9254
    -49874.621    25753872.001
  -1644467.156    24180527.993    -1279828.4704   24180524.0464
  16870706.832    22054270.713    13156427.5744   22054264.4554
  47868784.555    24733777.824    37305594.4614   24733772.9324
  -5384145.875    21638144.075    -4183004.4664   21638138.8104
  -1291938.898    22466825.826     -969571.5684   22466822.4274
  -3631588.367    21889103.425    -2822451.3344   21889097.9624
 05  4  2  0 42 30.0030000  0  8G 1G 4G 7G11G19G20G24G28
   1203384.598    25806028.779      934969.7564   25806026.9814
    -70625.441    25749922.907
  -1655557.625    24178417.187    -1288470.3484   24178413.6664
  16989118.695    22076803.911    13248696.5544   22076797.8744
  48008894.707    24760439.779    37414771.1294   24760435.5214
  -5357565.898    21643202.054    -4162292.7864   21643196.6054
  -1267032.250    22471565.705     -950163.7844   22471561.8494
  -3586979.570    21897592.263    -2787691.2414   21897586.6034
 05  4  2  0 43  0.0030000  0  8G 1G 4G 7G11G19G20G24G28
   1237506.414    25812521.157      961558.1844   25812520.3244
    -91229.008    25746002.495
  -1666611.598    24176313.945    -1297083.7894   24176310.3644
  17107718.816    22099372.677    13341112.2304   22099367.0664
  48149182.527    24787135.783    37524086.2494   24787131.2634
  -5330415.109    21648368.690    -4141136.3054   21648363.4754
  -1241824.039    22476362.342     -930521.0074   22476358.7134
  -3541783.680    21906192.977    -2752473.6664   21906187.2534
 05  4  2  0 43 30.0030000  0  8G 1G 4G 7G11G19G20G24G28
   1272024.473    25819090.817      988455.4484   25819088.6534
   -111684.285    25742110.800
  -1677627.055    24174217.763    -1305667.2364   24174213.4124
  17226506.605    22121976.966    13433674.1364   22121971.4654
  48289648.664    24813865.192    37633540.2924   24813861.0604
  -5302691.703    21653644.151    -4119533.6404   21653639.1284
  -1216313.887    22481217.051     -910642.9584   22481213.4034
  -3495999.020    21914905.571    -2716797.3114   21914899.9754
 05  4  2  0 44  0.0030000  0  8G 1G 4G 7G11G19G20G24G28
   1306942.098    25825735.469     1015664.1024   25825733.2304
   -131989.527    25738245.419
  -1688601.719    24172129.812    -1314218.8884   24172125.5914
  17345482.047    22144617.525    13526382.2644   22144611.7284
  48430294.113    24840629.296    37743134.0664   24840625.0954
  -5274393.383    21659029.142    -4097482.9894   21659023.9814
  -1190500.914    22486129.218     -890528.9404   22486124.8964
  -3449623.328    21923730.322    -2680660.4044   21923724.6984
 05  4  2  0 44 30.0030000  0  8G 1G 4G 7G11G19G20G24G28
   1342261.797    25832456.163     1043186.0274   25832455.1954
   -152143.703    25734410.001
  -1699533.828    24170049.245    -1322737.3704   24170045.5204
  17464644.754    22167293.613    13619236.3124   22167287.7864
  48571119.332    24867428.000    37852867.9344   24867422.8514
  -5245518.137    21664523.988    -4074982.7784   21664518.7154
  -1164385.012    22491098.873     -870178.8924   22491094.7594
  -3402655.102    21932668.164    -2644061.7964   21932662.3954
 05  4  2  0 45  0.0040000  0  8G 1G 4G 7G11G19G20G24G28
   1377983.527    25839253.741     1071021.1694   25839251.6494
   -172150.203    25730603.322
  -1710426.148    24167976.607    -1331224.8904   24167972.2734
  17583994.066    22190004.468    13712235.7724   22189998.8034
  48712125.422    24894259.830    37962742.7394   24894255.6094
  -5216067.281    21670128.330    -4052034.0514   21670123.1504
  -1137969.242    22496125.135     -849595.1614   22496121.7274
  -3355095.348    21941718.427    -2607002.2534   21941712.9484
 05  4  2  0 45 30.0040000  0  8G 1G 4G 7G11G19G20G24G28
   1414107.707    25846128.081     1099169.8804   25846125.9024
   -192006.770    25726824.543
  -1721275.980    24165911.179    -1339679.2434   24165907.7234
  17703521.594    22212749.977    13805374.1124   22212744.5884
  48853303.594    24921125.896    38072751.6054   24921121.1664
  -5186040.980    21675842.043    -4028636.9094   21675836.8934
  -1111255.125    22501208.732     -828778.9614   22501205.2794
  -3306945.277    21950881.292    -2569482.7144   21950875.4684
 05  4  2  0 46  0.0040000  0  8G 1G 4G 7G11G19G20G24G28
   1450640.414    25853079.892     1127637.0954   25853078.4234
   -211710.379    25723074.441
  -1732079.613    24163855.857    -1348097.5994   24163851.5484
  17823233.172    22235530.353    13898655.8534   22235524.5404
  48994661.355    24948025.425    38182900.4354   24948021.1514
  -5155434.305    21681666.509    -4004787.5364   21681661.2224
  -1084239.320    22506349.949     -807727.6734   22506346.2754
  -3258199.711    21960157.100    -2531499.1544   21960151.4024
 05  4  2  0 46 30.0040000  0  8G 1G 4G 7G11G19G20G24G28
   1487580.988    25860109.172     1156421.9744   25860107.0894
   -231263.594    25719354.543     -171350.0825   25719352.5694
  -1742838.414    24161808.274    -1356481.0654   24161804.0224
  17943125.090    22258345.041    13992078.1104   22258339.4894
  49136195.648    24974958.545    38293186.8334   24974954.0774
  -5124248.910    21687600.906    -3980487.2234   21687595.5004
  -1056924.824    22511547.291     -786443.6454   22511543.5984
  -3208860.348    21969546.228    -2493052.9104   21969540.4914
 05  4  2  0 47  0.0040000  0  8G 1G 4G 7G11G19G20G24G28
   1524931.883    25867217.240     1185526.6244   25867215.6434
   -250665.109    25715663.050     -186468.1174   25715660.1334
  -1753550.871    24159769.751    -1364828.3914   24159766.2774
  18063196.750    22281194.040    14085640.4284   22281188.4324
  49277907.133    25001924.996    38403611.2694   25001919.9734
  -5092483.090    21693645.603    -3955734.6114   21693640.2714
  -1029311.973    22516802.224     -764927.1274   22516798.6334
  -3158925.836    21979048.392    -2454142.8954   21979042.9024
 05  4  2  0 47 30.0040000  0  8G 1G 4G 7G11G19G20G24G28
   1562695.273    25874402.595     1214952.7454   25874402.1484
   -269914.395    25711999.010     -201467.6204   25711997.3894
  -1764215.461    24157740.665    -1373138.4364   24157736.5274
  18183447.020    22304077.073    14179341.9304   22304071.3594
  49419795.539    25028926.170    38514173.5864   25028921.4664
  -5060135.824    21699801.102    -3930528.9354   21699795.6684
  -1001400.816    22522113.463     -743178.1644   22522109.8104
  -3108394.926    21988663.862    -2414768.1814   21988658.5254
                            4  1
RINEX FILE SPLICE; other post-header comments skipped       COMMENT
 05  4  2  0 48  0.0040000  0  8G 1G 4G 7G11G19G20G24G28
   1600872.379    25881667.680     1244701.2604   25881665.6104
   -289011.793    25708364.598     -216348.6684   25708362.4404
  -1774831.840    24155720.088    -1381410.9054   24155716.1414
  18303874.000    22326993.319    14273181.1274   22326987.3614
  49561859.961    25055959.603    38624873.0424   25055955.9294
  -5027206.895    21706067.209    -3904870.0164   21706061.6594
   -973192.410    22527481.400     -721197.5824   22527477.5824
  -3057267.910    21998393.085    -2374928.9434   21998387.6594
 05  4  2  0 48 30.0040000  0  8G 1G 4G 7G11G19G20G24G28
   1639466.230    25889011.596     1274774.4844   25889010.8404
   -307955.609    25704760.178     -231110.1024   25704757.8534
  -1785397.453    24153709.419    -1389643.8094   24153705.6584
  18424477.879    22349943.302    14367158.1614   22349937.8814
  49704101.539    25083027.976    38735710.5174   25083021.9494
  -4993693.957    21712444.510    -3878756.0124   21712439.1894
   -944686.258    22532906.021     -698984.9934   22532901.9464
  -3005542.695    22008235.948    -2334623.5804   22008230.4714
 05  4  2  0 49  0.0040000  0  8G 1G 4G 7G11G19G20G24G28
   1678473.785    25896434.222     1305170.0814   25896432.5944
   -326750.223    25701182.922     -245755.2384   25701180.8384
  -1795916.098    24151707.677    -1397840.1084   24151703.8044
  18545252.852    22372926.421    14461268.5144   22372920.4714
  49846515.223    25110128.482    38846682.1244   25110122.7924
  -4959600.887    21718932.201    -3852189.9614   21718926.7554
   -915887.977    22538386.260     -676544.7614   22538382.1444
  -2953223.469    22018192.191    -2293855.3634   22018186.4214
 05  4  2  0 49 30.0040000  0  8G 1G 4G 7G11G19G20G24G28
   1717902.852    25903937.176     1335894.0874   25903935.9884
   -345389.738    25697636.956     -260279.4964   25697634.0184
  -1806380.586    24149716.602    -1405994.2434   24149712.8284
  18666203.613    22395942.219    14555515.8644   22395936.5734
  49989106.426    25137262.671    38957792.0644   25137258.1364
  -4924921.160    21725531.527    -3825166.7934   21725526.2074
   -886792.016    22543922.774     -653872.5644   22543918.7174
  -2900303.652    22028262.415    -2252619.1464   22028257.0444
 05  4  2  0 50  0.0040000  0  8G 1G 4G 7G11G19G20G24G28
   1757756.316    25911520.745     1366948.8194   25911520.4204
   -363872.262    25694119.332     -274681.4534   25694116.7684
  -1816788.824    24147735.805    -1414104.5204   24147732.1954
  18787329.574    22418992.003    14649899.7184   22418986.6054
  50131876.039    25164430.708    39069041.0304   25164425.7954
  -4889652.688    21732242.806    -3797684.8514   21732237.4054
   -857397.613    22549516.352     -630967.8224   22549512.1154
  -2846781.348    22038447.106    -2210913.4594   22038441.8294
 05  4  2  0 50 30.0040000  0  8G 1G 4G 7G11G19G20G24G28
   1798034.723    25919185.526     1398334.6864   25919184.7354
   -382198.762    25690632.449     -288961.8264   25690629.6634
  -1827140.730    24145766.013    -1422170.8884   24145761.8414
  18908628.914    22442074.486    14744418.6514   22442068.9744
  50274822.648    25191632.718    39180427.8594   25191627.5944
  -4853795.977    21739065.922    -3769744.5414   21739060.8444
   -827707.016    22555166.113     -607832.2774   22555162.1314
  -2792657.234    22048746.889    -2168738.8294   22048741.4624
 05  4  2  0 51  0.0040000  0  8G 1G 4G 7G11G19G20G24G28
   1838738.297    25926931.716     1430051.8714   25926930.5134
   -400370.406    25687174.267     -303121.5814   25687171.3614
  -1837436.688    24143806.638    -1430193.6904   24143802.9074
  19030098.793    22465189.727    14839070.4884   22465183.8704
  50417944.344    25218868.118    39291951.1834   25218863.2754
  -4817351.746    21746001.258    -3741346.4274   21745996.2144
   -797721.863    22560872.218     -584467.2104   22560868.0514
  -2737932.078    22059160.707    -2126095.8464   22059155.2844
 05  4  2  0 51 30.0040000  0  8G 1G 4G 7G11G19G20G24G28
   1879870.291    25934758.300     1462102.9534   25934756.3764
   -418385.426    25683746.402     -317159.1904   25683742.7324
  -1847673.906    24141858.196    -1438170.7004   24141854.6794
  19151739.977    22488336.897    14933855.8084   22488331.2694
  50561242.496    25246136.814    39403611.9874   25246132.1044
  -4780317.652    21753048.523    -3712488.6854   21753043.3164
   -767441.543    22566634.460     -560872.1404   22566630.6924
  -2682604.121    22069689.402    -2082983.1614   22069683.7874
 05  4  2  0 52  0.0040000  0  8G 1G 4G 7G11G19G20G24G28
   1921433.258    25942667.844     1494489.7054   25942665.7684
   -436242.746    25680347.999     -331073.9264   25680345.3604
  -1857850.637    24139921.577    -1446100.5844   24139918.1654
  19273551.719    22511517.045    15028774.0384   22511511.4504
  50704717.355    25273439.306    39515410.4344   25273434.6964
  -4742692.160    21760208.562    -3683170.1114   21760203.1594
   -736866.211    22572452.620     -537047.1944   22572448.5534
  -2626672.121    22080332.695    -2039399.7884   22080327.0574
 05  4  2  0 52 30.0040000  0  9G 1G 4G 7G11G19G20G23G24G28
   1963425.418    25950658.315     1527211.0134   25950657.3734
   -453945.570    25676979.335     -344868.2914   25676977.1684
  -1867968.875    24137996.455    -1453984.8954   24137992.6634
  19395529.473    22534728.353    15123821.6154   22534722.3684
  50848365.324    25300774.359    39627343.8344   25300770.0884
  -4704478.043    21767480.487    -3653392.8674   21767474.9884
     -2853.1641   26490310.846
   -705999.617    22578326.800     -512995.2964   22578322.7294
  -2570138.688    22091090.795    -1995347.7614   22091085.2294
 05  4  2  0 53  0.0040000  0  9G 1G 4G 7G11G19G20G23G24G28
   2005852.391    25958732.202     1560271.0664   25958729.7404
   -471489.492    25673640.896     -358538.8864   25673638.2954
  -1878023.543    24136082.871    -1461819.6514   24136078.8584
  19517676.098    22557972.315    15219000.7684   22557966.8784
  50992189.914    25328143.460    39739414.8534   25328139.2574
  -4665670.938    21774865.259    -3623153.5604   21774859.8324
    -19046.703    26487228.488
   -674838.469    22584255.924     -488713.8614   22584252.3844
  -2512999.484    22101964.061    -1950823.7104   22101958.3994
 05  4  2  0 53 30.0040000  0  9G 1G 4G 7G11G19G20G23G24G28
   2048714.254    25966887.279     1593669.9914   25966886.5654
   -488875.852    25670332.158     -372086.6444   25670329.6274
  -1888015.113    24134181.613    -1469605.2684   24134177.8284
  19639988.867    22581247.713    15314309.4094   22581242.3084
  51136189.258    25355545.624    39851622.0184   25355541.6744
  -4626271.680    21782362.626    -3592452.8234   21782356.8724
    -35376.930    26484121.319      -25381.3365   26484117.9874
   -643384.992    22590241.697     -464204.6604   22590237.5004
  -2455255.746    22112952.630    -1905828.5964   22112946.8614
 05  4  2  0 54  0.0040000  0  9G 1G 4G 7G11G19G20G23G24G28
   2092015.758    25975127.708     1627411.5134   25975126.6464
   -506101.223    25667054.398     -385508.9544   25667051.5704
  -1897939.242    24132293.196    -1477338.3354   24132288.8694
  19762469.371    22604554.881    15409748.7514   22604549.5874
  51280365.852    25382981.838    39963967.3064   25382977.6104
  -4586276.555    21789973.301    -3561287.7884   21789968.2214
    -51838.371    26480987.840      -38208.3054   26480985.3254
   -611636.887    22596282.798     -439465.8784   22596279.3084
  -2396903.910    22124056.275    -1860359.6434   22124050.7724
 05  4  2  0 54 30.0040000  0  9G 1G 4G 7G11G19G20G23G24G28
   2135754.066    25983451.563     1661493.4084   25983449.3814
   -523169.809    25663805.513     -398809.0584   25663803.6414
  -1907799.125    24130416.801    -1485021.3024   24130412.7634
  19885112.508    22627893.396    15505314.8174   22627887.6974
  51424715.230    25410450.863    40076447.2234   25410445.9834
  -4545689.402    21797696.998    -3529661.4204   21797691.2204
    -68432.957    26477830.614      -51139.0234   26477827.9094
   -579599.297    22602379.370     -414501.5094   22602375.5104
  -2337948.043    22135275.306    -1814420.0114   22135269.3654
 05  4  2  0 55  0.0040000  0  9G 1G 4G 7G11G19G20G23G24G28
   2179932.656    25991857.443     1695918.3294   25991856.0774
   -540079.527    25660588.184     -411985.4264   25660585.5814
  -1917591.680    24128553.623    -1492651.8354   24128549.5814
  20007919.012    22651262.454    15601008.1704   22651256.4644
  51569238.551    25437952.721    40189062.6694   25437948.0614
  -4504507.930    21805533.280    -3497571.9434   21805528.1494
    -85156.430    26474648.394      -64170.2234   26474644.4084
   -547271.148    22608531.336     -389310.7334   22608527.5014
  -2278386.133    22146609.455    -1768008.1484   22146603.8714
 05  4  2  0 55 30.0040000  0  9G 1G 4G 7G11G19G20G23G24G28
   2224556.102    26000349.642     1730689.9254   26000347.1454
   -556827.219    25657401.157     -425035.4534   25657398.2954
  -1927312.625    24126703.476    -1500226.5704   24126699.8014
  20130890.730    22674663.516    15696830.2664   22674657.5384
  51713938.660    25465488.354    40301815.8824   25465484.0734
  -4462728.379    21813483.785    -3465016.4384   21813478.2024
   -102003.449    26471442.023      -77297.6514   26471438.0904
   -514650.191    22614738.991     -363891.8044   22614735.1044
  -2218214.680    22158059.696    -1721121.3124   22158054.1274
 05  4  2  0 56  0.0040000  0  9G 1G 4G 7G11G19G20G23G24G28
   2269624.188    26008925.773     1765807.9124   26008924.7254
   -573414.242    25654245.164     -437960.4044   25654241.7084
  -1936962.566    24124867.121    -1507745.9694   24124863.3284
  20254024.621    22698094.966    15792778.7364   22698089.3754
  51858813.328    25493056.681    40414705.1074   25493052.3144
  -4420352.043    21821547.796    -3431995.8994   21821542.4354
   -118973.137    26468212.535      -90520.6144   26468209.6964
   -481738.453    22621001.845     -338246.2754   22620997.9274
  -2157435.098    22169625.558    -1673760.6124   22169620.1034
 05  4  2  0 56 30.0040000  0  9G 1G 4G 7G11G19G20G23G24G28
   2315140.824    26017586.932     1801275.5954   26017585.6044
   -589837.957    25651118.618     -450758.0434   25651116.7894
  -1946537.742    24123045.247    -1515207.1194   24123041.5044
  20377322.047    22721558.008    15888854.6314   22721551.8084
  52003864.637    25520659.419    40527731.9294   25520654.7214
  -4377376.145    21829725.617    -3398508.1674   21829720.3484
   -136060.8321   26464960.943     -103835.6265   26464957.6154
   -448534.395    22627319.969     -312372.9704   22627316.5454
  -2096044.801    22181307.941    -1625924.0254   22181302.3424
 05  4  2  0 57  0.0050000  0  9G 1G 4G 7G11G19G20G23G24G28
   2361107.750    26026334.799     1837093.9584   26026332.2284
   -606100.043    25648024.375     -463429.7924   25648022.0204
  -1956038.691    24121237.169    -1522610.4364   24121233.0484
  20500784.766    22745052.201    15985059.3344   22745046.0924
  52149095.684    25548296.169    40640898.8564   25548291.6094
  -4333800.371    21838017.983    -3364553.0014   21838012.5714
   -153265.695    26461686.293     -117242.0374   26461683.7654
   -415039.070    22633694.359     -286272.7234   22633690.2714
  -2034042.766    22193106.587    -1577610.7574   22193100.7974
 05  4  2  0 57 30.0050000  0  9G 1G 4G 7G11G19G20G23G24G28
   2407523.727    26035167.628     1873262.2904   26035165.7844
   -622198.703    25644961.248     -475974.1444   25644958.7874
  -1965463.227    24119443.827    -1529954.1874   24119440.0004
  20624403.797    22768575.772    16081385.8244   22768570.2394
  52294496.629    25575965.074    40754198.1854   25575961.0874
  -4289626.586    21846424.043    -3330131.8574   21846418.5704
   -170584.141    26458391.789     -130736.7604   26458388.5764
   -381254.891    22640123.446     -259947.3734   22640119.4114
  -1971432.660    22205020.970    -1528823.6764   22205015.2704
 05  4  2  0 58  0.0050000  0  9G 1G 4G 7G11G19G20G23G24G28
   2454389.820    26044085.854     1909781.3864   26044084.1254
   -638136.516    25641928.695     -488393.2104   25641926.5034
  -1974812.203    24117664.712    -1537239.0854   24117660.9124
  20748180.051    22792129.657    16177834.8304   22792124.1084
  52440069.910    25603666.932    40867631.8424   25603662.6804
  -4244855.000    21854943.531    -3295244.8844   21854938.2264
   -188015.797    26455073.715     -144319.7424   26455071.3414
   -347183.477    22646606.757     -233398.2114   22646602.5164
  -1908214.168    22217050.839    -1479562.5184   22217045.4524
                            4  1
RINEX FILE SPLICE; other post-header comments skipped       COMMENT
 05  4  2  0 58 30.0050000  0  9G 1G 4G 7G11G19G20G23G24G28
   2501709.441    26053089.757     1946653.8054   26053088.2984
   -653911.145    25638926.695     -500685.0724   25638924.5624
  -1984082.473    24115900.400    -1544462.6434   24115896.9384
  20872114.539    22815713.301    16274407.1374   22815708.2874
  52585817.035    25631401.989    40981200.8734   25631397.6684
  -4199483.430    21863577.734    -3259890.4014   21863572.0814
   -205556.395    26451736.047     -157987.6584   26451733.2224
   -312823.531    22653145.079     -206624.2204   22653141.4794
  -1844385.168    22229197.173    -1429825.6424   22229191.4034
 05  4  2  0 59  0.0050000  0  9G 1G 4G 7G11G19G20G23G24G28
   2549483.863    26062180.817     1983880.6514   26062179.9114
   -669522.523    25635955.742     -512849.7104   25635953.2304
  -1993273.047    24114151.259    -1551624.1054   24114147.8754
  20996205.629    22839327.611    16371101.4694   22839321.6394
  52731737.406    25659169.543    41094904.8994   25659166.0144
  -4153511.562    21872325.643    -3224068.1454   21872320.2444
   -223203.422    26448377.968     -171738.4864   26448374.4224
   -278176.203    22659738.140     -179626.2914   22659734.0184
  -1779945.684    22241459.552    -1379613.0724   22241454.0144
 05  4  2  0 59 30.0050000  0  9G 1G 4G 7G11G19G20G23G24G28
   2597714.844    26071359.422     2021463.2314   26071357.3704
   -684970.199    25633015.846     -524886.7944   25633013.6784
  -2002382.305    24112418.015    -1558722.1964   24112414.2444
  21120452.781    22862970.995    16467917.4134   22862965.1544
  52877830.660    25686970.368    41208743.7244   25686966.4784
  -4106938.895    21881188.038    -3187777.7434   21881182.7774
   -240954.219    26444999.610     -185570.1674   26444995.9524
   -243241.930    22666386.266     -152404.7694   22666382.4694
  -1714895.363    22253838.401    -1328924.5214   22253832.5974
                            4  1
RINEX FILE SPLICE; other post-header comments skipped       COMMENT
