     2.10           OBSERVATION DATA    G (GPS)             RINEX VERSION / TYPE
teqc  2002Mar14     GSI, JAPAN          20050404 05:46:15UTCPGM / RUN BY / DATE
Linux 2.0.36|Pentium II|gcc -static|Linux|486/DX+           COMMENT
teqc  2002Mar14     GSI, JAPAN          20050402 03:13:38UTCCOMMENT
3040                                                        MARKER NAME
GSI, JAPAN          GEOGRAPHICAL SURVEY INSTITUTE, JAPAN    OBSERVER / AGENCY
00000               TRIMBLE 5700        1.24                REC # / TYPE / VERS
                    TRM29659.00                             ANT # / TYPE
 -3978242.4348  3382841.1715  3649902.7667                  APPROX POSITION XYZ
        0.0000        0.0000        0.0000                  ANTENNA: DELTA H/E/N
     1     1                                                WAVELENGTH FACT L1/2
     4    L1    C1    L2    P2                              # / TYPES OF OBSERV
    30.0000                                                 INTERVAL
teqc windowed: start @ 2005 Apr  2 00:00:00.000             COMMENT
teqc windowed:  end  @ 2005 Apr  2 23:59:59.000             COMMENT
  2005     4     2     0     0    0.0000000     GPS         TIME OF FIRST OBS
                                                            END OF HEADER
 05  4  2  0  0  0.0000000  0  9G 3G 7G 8G11G19G20G24G27G28
 -41706426.668    24801780.917   -32471209.7934   24801779.3144
  -9569341.859    24399954.961    -7436067.0974   24399949.7484
 -27590978.516    23442572.197   -21473441.4774   23442567.8524
 -46515030.816    20348108.903   -36218805.2194   20348102.0214
 -47586749.184    22648139.140   -37054239.2584   22648132.3644
 -28434148.766    21599275.315   -22130538.6254   21599269.4874
 -21881884.777    22311774.026   -17025292.8804   22311768.6424
 -32824945.098    24175287.556   -25552931.1864   24175282.9694
 -31201141.133    21580989.329   -24288098.8294   21580982.5244
 05  4  2  0  0 30.0000000  0  9G 3G 7G 8G11G19G20G24G27G28
 -41674832.477    24807793.322   -32446591.0424   24807790.7254
  -9696843.016    24375691.789    -7535418.6284   24375686.4614
 -27567698.789    23447002.517   -21455301.4844   23446998.2604
 -46533507.340    20344592.864   -36233202.5234   20344585.7324
 -47578125.496    22649780.546   -37047519.5434   22649772.9134
 -28565493.117    21574281.367   -22232884.8464   21574275.2344
 -21999490.051    22289393.880   -17116933.3524   22289388.9114
 -32799733.980    24180085.544   -25533286.2934   24180081.1614
 -31316635.973    21559011.591   -24378094.8034   21559004.7934
 05  4  2  0  1  0.0000000  0  9G 3G 7G 8G11G19G20G24G27G28
 -41643162.613    24813820.094   -32421913.3704   24813818.2884
  -9824394.488    24351419.147    -7634809.3714   24351414.9104
 -27544182.012    23451478.187   -21436976.7534   23451473.0724
 -46551706.133    20341129.964   -36247383.4024   20341122.7484
 -47569350.844    22651449.862   -37040682.1774   22651443.0534
 -28696461.398    21549358.951   -22334938.0284   21549352.8854
 -22116809.539    22267068.770   -17208351.1284   22267063.5034
 -32774515.531    24184883.827   -25513635.6684   24184879.7304
 -31431721.273    21537111.207   -24467771.6634   21537104.8174
 05  4  2  0  1 30.0000000  0  9G 3G 7G 8G11G19G20G24G27G28
 -41611412.238    24819862.425   -32397172.8964   24819860.4094
  -9951990.582    24327138.757    -7734234.8814   24327134.1954
 -27520426.754    23455998.093   -21418466.2204   23455993.7974
 -46569623.527    20337720.350   -36261345.0114   20337713.1354
 -47560419.973    22653149.559   -37033723.0984   22653142.4374
 -28827045.773    21524509.437   -22436692.0744   21524503.4084
 -22233837.809    22244798.899   -17299541.9564   22244794.2124
 -32749287.391    24189684.712   -25493977.4624   24189680.5834
 -31546389.367    21515290.824   -24557123.4224   21515283.8174
 05  4  2  0  2  0.0000000  0  9G 3G 7G 8G11G19G20G24G27G28
 -41579584.590    24825919.444   -32372372.2924   24825917.0834
 -10079634.156    24302848.714    -7833697.3894   24302844.6794
 -27496438.965    23460563.336   -21399774.4714   23460557.8984
 -46587264.086    20334363.181   -36275090.9084   20334356.1504
 -47551335.723    22654878.231   -37026644.4994   22654871.2334
 -28957246.715    21499732.865   -22538147.3244   21499727.3804
 -22350577.852    22222583.971   -17390508.1954   22222579.3044
 -32724055.965    24194486.012   -25474316.6234   24194483.2024
 -31660640.918    21493549.406   -24646150.6044   21493542.7344
 05  4  2  0  2 30.0000000  0  9G 3G 7G 8G11G19G20G24G27G28
 -41547681.723    24831990.470   -32347513.0094   24831987.0624
 -10207326.254    24278550.211    -7933197.7404   24278545.6524
 -27472223.496    23465171.370   -21380905.3394   23465166.4854
 -46604631.059    20331058.728   -36288623.6304   20331051.6614
 -47542099.555    22656635.761   -37019447.5384   22656628.7074
 -29087063.172    21475029.830   -22639302.9934   21475023.6204
 -22467030.746    22200423.556   -17481250.6804   22200418.8344
 -32698825.516    24199287.706   -25454656.6244   24199283.3754
 -31774475.203    21471887.531   -24734852.6454   21471880.7774
 05  4  2  0  3  0.0000000  0  9G 3G 7G 8G11G19G20G24G27G28
 -41515702.754    24838075.366   -32322594.4054   24838072.6204
 -10335065.246    24254241.299    -8032734.5944   24254236.9664
 -27447782.699    23469821.970   -21361860.6254   23469818.2054
 -46621724.352    20327805.940   -36301943.0884   20327798.6044
 -47532710.059    22658422.780   -37012131.1124   22658415.3484
 -29216491.207    21450400.372   -22740155.9794   21450394.6704
 -22583195.098    22178318.573   -17571768.3434   22178313.5744
 -32673597.715    24204088.127   -25434998.6984   24204084.3804
 -31887888.562    21450305.631   -24823226.7004   21450298.7994
 05  4  2  0  3 30.0000000  0  9G 3G 7G 8G11G19G20G24G27G28
 -41483647.883    24844175.317   -32297616.7284   24844172.7134
 -10462851.059    24229924.642    -8132307.9374   24229920.5304
 -27423120.074    23474515.283   -21342643.0284   23474511.1344
 -46638545.754    20324604.824   -36315050.6964   20324597.6594
 -47523167.371    22660238.583   -37004695.3084   22660231.4894
 -29345528.570    21425845.377   -22840704.5424   21425839.5874
 -22699070.781    22156268.160   -17662061.0594   22156263.4674
 -32648375.637    24208888.806   -25415345.2664   24208884.6084
 -32000878.926    21428804.234   -24911271.1524   21428797.5754
 05  4  2  0  4  0.0000000  0  9G 3G 7G 8G11G19G20G24G27G28
 -41451519.875    24850289.672   -32272582.0024   24850287.2794
 -10590685.168    24205598.891    -8231918.9334   24205594.2834
 -27398240.910    23479249.592   -21323256.7064   23479245.3374
 -46655098.836    20321454.707   -36327949.2064   20321447.8744
 -47513473.438    22662083.291   -36997141.6714   22662076.4444
 -29474174.621    21401364.496   -22940948.1984   21401358.5464
 -22814659.652    22134271.672   -17752130.2724   22134267.3284
 -32623164.488    24213685.661   -25395700.3524   24213682.0824
 -32113445.992    21407383.611   -24998985.7594   21407376.6354
 05  4  2  0  4 30.0000000  0  9G 3G 7G 8G11G19G20G24G27G28
 -41419319.000    24856417.160   -32247490.5444   24856414.6024
 -10718567.312    24181263.806    -8331567.3614   24181259.2744
 -27373148.977    23484024.101   -21303704.5754   23484019.6484
 -46671385.043    20318355.915   -36340639.7864   20318348.6364
 -47503628.035    22663957.076   -36989469.9694   22663949.8674
 -29602426.695    21376959.333   -23040884.8664   21376953.5164
 -22929961.656    22112330.825   -17841975.9804   22112325.9114
 -32597967.191    24218481.183   -25376066.2044   24218477.8944
 -32225587.523    21386043.760   -25086368.7734   21386036.7474
 05  4  2  0  5  0.0000000  0  9G 3G 7G 8G11G19G20G24G27G28
 -41387045.785    24862558.544   -32222342.6774   24862556.5134
 -10846497.395    24156920.257    -8431253.1454   24156914.5154
 -27347847.875    23488839.577   -21283989.5154   23488834.6124
 -46687406.398    20315307.117   -36353123.9794   20315299.7014
 -47493631.578    22665859.249   -36981680.5724   22665852.6184
 -29730282.668    21352629.086   -23140512.8594   21352623.2754
 -23044976.828    22090443.971   -17931598.1754   22090439.2424
 -32572787.047    24223273.239   -25356445.4334   24223268.9064
 -32337301.613    21364785.283   -25173418.7184   21364778.7494
 05  4  2  0  5 30.0000000  0  9G 3G 7G 8G11G19G20G24G27G28
 -41354700.434    24868713.280   -32197138.6234   24868711.1614
 -10974474.598    24132566.233    -8530975.5634   24132561.9284
 -27322340.262    23493693.166   -21264113.4644   23493688.7094
 -46703163.902    20312308.576   -36365402.5784   20312301.4744
 -47483483.516    22667790.212   -36973773.0364   22667783.5304
 -29857739.770    21328374.630   -23239830.0614   21328368.3534
 -23159704.812    22068612.444   -18020996.5974   22068607.7824
 -32547626.570    24228060.711   -25336839.9424   24228056.8204
 -32448585.410    21343608.824   -25260133.3534   21343602.0234
 05  4  2  0  5 59.9990000  0  9G 3G 7G 8G11G19G20G24G27G28
 -41322284.359    24874882.414   -32171879.4314   24874880.2474
 -11102494.180    24108205.045    -8630731.1034   24108199.8464
 -27296630.551    23498585.748   -21244080.0184   23498580.6394
 -46718658.539    20309359.862   -36377476.3314   20309352.5614
 -47473183.969    22669750.078   -36965747.4514   22669743.2334
 -29984791.199    21304197.523   -23338831.1574   21304191.5494
 -23274141.355    22046835.600   -18110167.9244   22046831.1714
 -32522489.586    24232844.353   -25317252.7604   24232840.5634
 -32559433.133    21322515.122   -25346508.2034   21322508.4604
 05  4  2  0  6 29.9990000  0  9G 3G 7G 8G11G19G20G24G27G28
 -41289795.844    24881064.630   -32146563.8164   24881062.2144
 -11230564.395    24083834.353    -8730526.0504   24083829.2684
 -27270720.652    23503516.200   -21223890.5264   23503511.3824
 -46733892.980    20306460.925   -36389347.3424   20306453.8194
 -47462732.406    22671739.883   -36957603.4364   22671732.0954
 -30111443.012    21280096.463   -23437520.8424   21280090.7864
 -23388293.926    22025113.117   -18199117.9614   22025108.4904
 -32497377.277    24237623.330   -25297684.8284   24237619.6554
 -32669850.020    21301503.539   -25432547.3334   21301496.6564
 05  4  2  0  6 59.9990000  0  9G 3G 7G 8G11G19G20G24G27G28
 -41257235.312    24887260.954   -32121192.0624   24887258.6814
 -11358679.391    24059455.035    -8830355.9254   24059449.9874
 -27244613.699    23508483.864   -21203547.4904   23508479.1474
 -46748867.133    20303611.517   -36401015.5274   20303604.3364
 -47452128.082    22673757.183   -36949340.3764   22673749.7744
 -30237687.434    21256072.820   -23535893.0874   21256067.2394
 -23502157.766    22003445.781   -18287843.0384   22003440.3384
 -32472292.516    24242395.623   -25278138.3654   24242392.7584
 -32779828.992    21280574.983   -25518245.2344   21280567.8334
 05  4  2  0  7 29.9990000  0  9G 3G 7G 8G11G19G20G24G27G28
 -41224606.016    24893469.346   -32095766.8324   24893468.2544
 -11486841.797    24035066.284    -8930222.7184   24035061.1674
 -27218316.266    23513488.284   -21183056.0294   23513484.0854
 -46763585.500    20300810.812   -36412484.3904   20300803.6114
 -47441373.734    22675804.215   -36940960.4464   22675796.7244
 -30363524.891    21232126.879   -23633948.2164   21232121.0324
 -23615735.824    21981832.694   -18376345.4184   21981827.5844
 -32447241.180    24247162.851   -25258617.9114   24247159.2494
 -32889370.871    21259729.998   -25603602.5374   21259722.7484
 05  4  2  0  7 59.9990000  0  9G 3G 7G 8G11G19G20G24G27G28
 -41191904.762    24899692.535   -32070285.3274   24899691.1944
 -11615047.672    24010669.294    -9030123.3734   24010665.7064
 -27191828.332    23518529.040   -21162416.1724   23518524.7424
 -46778046.020    20298059.061   -36423752.3474   20298052.0324
 -47430466.000    22677879.882   -36932460.9774   22677872.5344
 -30488949.426    21208259.497   -23731681.5974   21208253.3814
 -23729024.527    21960274.379   -18464622.3384   21960269.5304
 -32422222.543    24251924.521   -25239123.0274   24251920.5564
 -32998469.820    21238968.979   -25688614.6964   21238961.9504
 05  4  2  0  8 29.9990000  0  9G 3G 7G 8G11G19G20G24G27G28
 -41159132.879    24905928.972   -32044749.0014   24905928.0414
 -11743297.379    23986264.004    -9130058.2104   23986259.2914
 -27165153.797    23523604.989   -21141630.8544   23523600.4144
 -46792251.266    20295355.967   -36434821.3934   20295348.8914
 -47419405.793    22679984.728   -36923842.7014   22679977.5854
 -30613959.539    21184470.672   -23829092.0434   21184464.9014
 -23842024.445    21938771.359   -18552674.2094   21938766.2324
 -32397240.594    24256678.377   -25219656.6214   24256674.6524
 -33107124.695    21218292.997   -25773280.8324   21218286.0134
 05  4  2  0  8 59.9990000  0  9G 3G 7G 8G11G19G20G24G27G28
 -41126290.969    24912178.937   -32019157.9614   24912177.7134
 -11871590.676    23961850.814    -9230027.0434   23961845.9854
 -27138296.613    23528715.703   -21120703.2764   23528711.3894
 -46806202.887    20292700.779   -36445692.8014   20292694.2824
 -47408192.910    22682118.575   -36915105.4744   22682110.8404
 -30738553.098    21160761.434   -23926177.9044   21160755.6444
 -23954735.711    21917322.873   -18640501.1684   21917317.9624
 -32372298.422    24261424.263   -25200221.2304   24261421.4954
 -33215333.695    21197701.171   -25857599.5304   21197694.6274
 05  4  2  0  9 29.9990000  0  9G 3G 7G 8G11G19G20G24G27G28
 -41093379.957    24918440.864   -31993513.1034   24918440.0734
 -11999927.797    23937429.487    -9330029.9354   23937424.6104
 -27111260.840    23533860.404   -21099636.4704   23533855.7064
 -46819902.840    20290094.070   -36456368.1084   20290086.8014
 -47396827.875    22684280.656   -36906249.6214   22684273.7954
 -30862728.168    21137131.726   -24022937.6804   21137126.3354
 -24067158.855    21895929.656   -18728103.6084   21895924.4094
 -32347399.473    24266162.654   -25180819.5864   24266158.4854
 -33323094.828    21177194.936   -25941569.2504   21177188.1754
 05  4  2  0  9 59.9990000  0  9G 3G 7G 8G11G19G20G24G27G28
 -41060398.336    24924717.987   -31967813.2674   24924716.4024
 -12128306.043    23912999.386    -9430064.9594   23912994.5604
 -27084047.633    23539039.192   -21078431.4424   23539034.6364
 -46833350.781    20287534.942   -36466847.0384   20287528.2384
 -47385308.633    22686472.691   -36897273.6444   22686466.2324
 -30986480.277    21113582.172   -24119367.8594   21113576.6164
 -24179291.938    21874591.070   -18815480.0084   21874586.3324
 -32322544.707    24270893.380   -25161452.3164   24270888.2724
 -33430404.105    21156775.007   -26025186.8564   21156768.3954
 05  4  2  0 10 29.9990000  0  9G 3G 7G 8G11G19G20G24G27G28
 -41027348.605    24931006.906   -31942060.3494   24931006.0124
 -12256727.094    23888561.947    -9530133.3344   23888557.8514
 -27056662.551    23544250.805   -21057092.4284   23544245.8024
 -46846549.559    20285023.208   -36477131.8224   20285016.3214
 -47373636.652    22688694.444   -36888178.6594   22688687.4174
 -31109808.938    21090113.718   -24215468.0824   21090108.0994
 -24291136.656    21853307.610   -18902631.7094   21853303.2754
 -32297738.816    24275612.669   -25142123.2304   24275608.4694
 -33537260.848    21136440.765   -26108451.8574   21136433.6384
 05  4  2  0 10 59.9990000  0  9G 3G 7G 8G11G19G20G24G27G28
 -40994229.195    24937310.173   -31916253.1744   24937307.1644
 -12385188.496    23864116.951    -9630233.1234   23864111.9074
 -27029106.711    23549494.382   -21035620.4304   23549489.5074
 -46859499.762    20282558.971   -36487222.9064   20282551.7064
 -47361810.930    22690944.479   -36878963.8964   22690937.6464
 -31232710.254    21066726.282   -24311235.3224   21066720.3604
 -24402691.223    21832079.563   -18989557.3194   21832074.7384
 -32272982.961    24280324.916   -25122833.0554   24280320.6044
 -33643661.996    21116193.231   -26191361.8524   21116186.1354
 05  4  2  0 11 29.9990000  0  9G 3G 7G 8G11G19G20G24G27G28
 -40961042.133    24943625.174   -31890393.1934   24943623.4614
 -12513691.336    23839663.252    -9730365.1844   23839659.3644
 -27001385.492    23554769.184   -21014019.5434   23554765.0124
 -46872203.730    20280141.177   -36497122.1204   20280134.3894
 -47349832.219    22693224.066   -36869629.8914   22693216.8694
 -31355182.941    21043420.367   -24406668.5634   21043414.3144
 -24513957.105    21810906.139   -19076257.9814   21810901.9924
 -32248281.664    24285024.710   -25103585.3874   24285021.2784
 -33749606.020    21096032.555   -26273915.6374   21096025.9504
 05  4  2  0 11 59.9990000  0  9G 3G 7G 8G11G19G20G24G27G28
 -40927786.934    24949953.534   -31864480.1554   24949951.8374
 -12642234.316    23815201.761    -9830528.5484   23815197.6304
 -26973501.449    23560075.763   -20992291.7424   23560070.8024
 -46884662.469    20277770.452   -36506830.2514   20277763.4424
 -47337699.973    22695533.001   -36860176.2594   22695526.2484
 -31477224.156    21020196.844   -24501765.5884   21020190.8474
 -24624933.703    21789788.249   -19162733.2134   21789783.7104
 -32223636.633    24289713.927   -25084381.5904   24289710.7864
 -33855090.180    21075959.468   -26356111.0784   21075952.9534
 05  4  2  0 12 29.9990000  0  9G 3G 7G 8G11G19G20G24G27G28
 -40894464.273    24956294.531   -31838514.6254   24956292.4744
 -12770817.164    23790733.566    -9930723.0034   23790729.3734
 -26945458.199    23565411.787   -20970439.9054   23565407.0554
 -46896877.777    20275446.174   -36516348.7044   20275439.3464
 -47325414.625    22697870.880   -36850603.3404   22697864.2644
 -31598831.965    20997055.270   -24596524.8874   20997049.5744
 -24735621.355    21768725.235   -19248983.3234   21768720.7924
 -32199051.477    24294393.430   -25065224.5284   24294389.1844
 -33960113.105    21055974.369   -26437947.1354   21055967.4884
 05  4  2  0 12 59.9990000  0  9G 3G 7G 8G11G19G20G24G27G28
 -40861075.422    24962647.561   -31812497.4304   24962646.3134
 -12899440.230    23766257.382   -10030948.7404   23766253.4614
 -26917260.172    23570777.494   -20948467.4824   23570773.8744
 -46908852.117    20273167.601   -36525679.3904   20273160.5564
 -47312976.758    22700237.521   -36840911.5514   22700230.7294
 -31720004.672    20973997.113   -24690945.1524   20973991.0104
 -24846020.422    21747717.127   -19335008.5454   21747712.4764
 -32174529.727    24299059.980   -25046116.6554   24299056.4714
 -34064673.375    21036077.443   -26519422.6654   21036070.5224
 05  4  2  0 13 29.9990000  0  9G 3G 7G 8G11G19G20G24G27G28
 -40827618.352    24969015.656   -31786427.1214   24969014.0774
 -13028100.359    23741774.708   -10131203.4044   23741769.8544
 -26888907.938    23576173.141   -20926374.8444   23576168.8024
 -46920584.047    20270934.881   -36534821.1754   20270927.6434
 -47300383.707    22702633.614   -36831098.8514   22702627.1244
 -31840737.664    20951022.413   -24785022.7814   20951016.5624
 -24956128.559    21726764.057   -19420807.0834   21726758.9944
 -32150071.699    24303714.064   -25027058.5674   24303710.6014
 -34168766.410    21016269.074   -26600534.1264   21016261.8924
 05  4  2  0 13 59.9990000  0  9G 3G 7G 8G11G19G20G24G27G28
 -40794091.574    24975395.498   -31760302.5264   24975393.9034
 -13156795.250    23717284.733   -10231485.1254   23717280.0744
 -26860403.285    23581597.094   -20904163.4704   23581593.5124
 -46932073.594    20268748.554   -36543774.0994   20268741.0654
 -47287633.844    22705059.719   -36821163.9704   22705053.2514
 -31961026.609    20928132.302   -24878754.4054   20928126.3694
 -25065944.039    21705866.507   -19506377.5774   21705861.5744
 -32125678.262    24308356.445   -25008050.8734   24308352.4014
 -34272388.234    20996550.405   -26681278.4024   20996543.2444
 05  4  2  0 14 29.9990000  0  9G 3G 7G 8G11G19G20G24G27G28
 -40760500.500    24981787.135   -31734127.7964   24981785.6774
 -13285529.285    23692787.541   -10331797.3354   23692782.8994
 -26831754.512    23587049.117   -20881839.8504   23587044.7764
 -46943327.066    20266607.032   -36552543.0604   20266600.3214
 -47274731.965    22707515.058   -36811110.6244   22707508.5034
 -32080874.172    20905326.045   -24972142.0834   20905320.0954
 -25175471.730    21685024.411   -19591723.8214   21685019.6744
 -32101357.312    24312984.160   -24989099.6364   24312980.5604
 -34375541.867    20976920.856   -26761657.8554   20976913.9924
 05  4  2  0 14 59.9990000  0  9G 3G 7G 8G11G19G20G24G27G28
 -40726843.496    24988192.383   -31707901.6834   24988190.3624
 -13414299.754    23668282.854   -10432137.9944   23668278.2094
 -26802962.797    23592527.970   -20859404.8114   23592524.1824
 -46954343.711    20264510.839   -36561127.4824   20264504.0304
 -47261675.848    22709999.389   -36800937.0784   22709993.4344
 -32200276.012    20882604.463   -25065182.4524   20882598.4744
 -25284709.539    21664237.152   -19676844.1904   21664232.3644
 -32077109.320    24317598.932   -24970205.2624   24317595.3324
 -34478223.035    20957381.558   -26841669.1544   20957374.5024
 05  4  2  0 15 29.9990000  0  9G 3G 7G 8G11G19G20G24G27G28
 -40693121.090    24994609.359   -31681624.6564   24994608.3074
 -13543106.340    23643772.200   -10532506.7554   23643767.6614
 -26774032.418    23598033.553   -20836861.7224   23598029.1324
 -46965125.191    20262459.178   -36569528.6634   20262452.6074
 -47248465.625    22712513.718   -36790643.4644   22712506.7844
 -32319230.121    20859968.086   -25157873.9484   20859962.3644
 -25393657.793    21643504.465   -19761738.9214   21643500.2254
 -32052937.746    24322198.011   -24951370.4174   24322194.8644
 -34580429.945    20937931.974   -26921310.9084   20937925.5434
 05  4  2  0 15 59.9990000  0  9G 3G 7G 8G11G19G20G24G27G28
 -40659334.086    25001038.597   -31655297.2924   25001036.6284
 -13671948.781    23619254.672   -10632903.4804   23619249.6214
 -26744966.707    23603564.982   -20814213.1844   23603560.9184
 -46975673.668    20260451.762   -36577748.2924   20260445.1394
 -47235101.727    22715056.517   -36780230.0954   22715050.2374
 -32437734.574    20837417.694   -25250215.0584   20837411.9264
 -25502316.793    21622827.370   -19846408.2644   21622822.9974
 -32028845.688    24326783.470   -24932597.4994   24326779.4424
 -34682160.973    20918573.201   -27000581.8274   20918566.8224
 05  4  2  0 16 29.9990000  0  8G 7G 8G11G19G20G24G27G28
 -13800826.145    23594729.235   -10733327.3724   23594725.5544
 -26715768.148    23609121.333   -20791461.1214   23609116.5484
 -46985989.902    20258488.874   -36585786.9324   20258482.3314
 -47221583.703    22717629.557   -36769696.6314   22717622.5564
 -32555786.730    20814952.992   -25342203.7294   20814946.9074
 -25610686.262    21602205.366   -19930851.9874   21602200.9664
 -32004835.152    24331352.926   -24913888.2104   24331349.2774
 -34783413.586    20899305.550   -27079479.9704   20899298.5854
 05  4  2  0 16 59.9990000  0  8G 7G 8G11G19G20G24G27G28
 -13929735.301    23570198.401   -10833776.0564   23570194.6444
 -26686438.137    23614702.697   -20768606.6104   23614697.8994
 -46996073.004    20256570.181   -36593643.9254   20256563.2714
 -47207909.090    22720231.405   -36759041.1614   22720224.6924
 -32673382.074    20792575.269   -25433836.4414   20792569.5774
 -25718763.582    21581639.046   -20015068.0704   21581634.4804
 -31980906.836    24335906.261   -24895242.8604   24335902.3384
 -34884183.387    20880129.493   -27158001.8914   20880123.0324
 05  4  2  0 17 29.9990000  0  8G 7G 8G11G19G20G24G27G28
 -14058674.352    23545661.943   -10934248.0474   23545658.8374
 -26656978.488    23620308.634   -20745651.1224   23620304.2074
 -47005922.848    20254695.809   -36601319.1464   20254688.6094
 -47194076.391    22722863.344   -36748262.4984   22722856.9674
 -32790516.953    20770285.293   -25525110.3514   20770279.2494
 -25826547.676    21561128.390   -20099055.6574   21561123.8574
 -31957061.855    24340443.473   -24876662.4794   24340439.3244
 -34984466.973    20861046.217   -27236144.9384   20861039.6024
 05  4  2  0 17 59.9990000  0  8G 7G 8G11G19G20G24G27G28
 -14187638.008    23521121.221   -11034739.1694   23521117.4184
 -26627388.113    23625939.396   -20722593.7934   23625934.8374
 -47015536.582    20252866.442   -36608810.3764   20252859.6464
 -47180081.004    22725527.219   -36737357.0564   22725520.6514
 -32907184.645    20748084.117   -25616020.2264   20748078.2424
 -25934034.203    21540674.618   -20182811.3864   21540669.9544
 -31933298.621    24344965.484   -24858145.8144   24344962.0484
 -35084257.707    20842056.500   -27313903.9554   20842049.8874
 05  4  2  0 18 29.9990000  0  8G 7G 8G11G19G20G24G27G28
 -14316623.574    23496577.070   -11135247.3734   23496571.7854
 -26597668.484    23631595.205   -20699435.6814   23631590.4374
 -47024913.277    20251081.971   -36616116.9214   20251075.0124
 -47165920.707    22728221.890   -36726323.1204   22728215.6384
 -33023380.738    20725972.691   -25706562.6144   20725966.6974
 -26041220.812    21520277.635   -20266333.3904   21520272.6294
 -31909617.652    24349472.149   -24839693.2964   24349469.0164
 -35183551.844    20823161.738   -27391276.0074   20823154.6234
 05  4  2  0 18 59.9990000  0  8G 1G 7G 8G11G19G20G24G28
    -36200.5621   24765288.619
 -14445629.875    23472027.926   -11235771.7654   23472022.8354
 -26567822.523    23637274.650   -20676179.1794   23637269.8434
 -47034053.961    20249342.383   -36623239.5404   20249335.7844
 -47151595.133    22730948.012   -36715160.3884   22730941.4884
 -33139102.723    20703951.532   -25796735.5684   20703945.3704
 -26148107.293    21499937.876   -20349621.5374   21499932.9174
 -35282346.777    20804362.045   -27468259.0754   20804354.9424
 05  4  2  0 19 29.9990000  0  8G 1G 7G 8G11G19G20G24G28
   -135367.8751   24746416.395      -88789.5785   24746414.4194
 -14574659.637    23447474.634   -11336314.4634   23447469.6284
 -26537856.512    23642976.605   -20652829.1424   23642972.3714
 -47042963.508    20247647.079   -36630182.0694   20247640.3334
 -47137107.426    22733705.110   -36703871.3174   22733698.6234
 -33254351.715    20682020.424   -25886539.9554   20682014.2294
 -26254697.383    21479654.437   -20432678.7354   21479649.8054
 -35380643.832    20785656.546   -27544854.1804   20785649.7884
 05  4  2  0 19 59.9990000  0  8G 1G 7G 8G11G19G20G24G28
   -234270.3831   24727596.068     -165856.4575   24727593.8964
 -14703715.039    23422915.603   -11436877.0924   23422910.5324
 -26507776.746    23648700.730   -20629390.4004   23648696.8104
 -47051646.031    20245995.027   -36636947.6774   20245988.0184
 -47122460.543    22736492.384   -36692458.2114   22736485.6994
 -33369128.441    20660179.075   -25975976.3464   20660172.8094
 -26360993.730    21459426.842   -20515507.0314   21459421.6394
 -35478444.266    20767045.928   -27621062.3164   20767038.9904
 05  4  2  0 20 29.9990000  0  8G 1G 7G 8G11G19G20G24G28
   -332907.4531   24708826.370     -242716.4165   24708823.3264
 -14832796.863    23398351.639   -11537460.3234   23398347.9564
 -26477588.488    23654445.363   -20605867.1394   23654440.9304
 -47060104.500    20244385.296   -36643538.7134   20244378.8294
 -47107656.004    22739309.636   -36680922.2564   22739302.6294
 -33483432.457    20638427.714   -26065044.3944   20638421.7304
 -26466997.930    21439254.933   -20598107.6954   21439250.3874
 -35575747.281    20748529.498   -27696882.8544   20748522.7694
 05  4  2  0 20 59.9980000  0  8G 1G 7G 8G11G19G20G24G28
   -431271.176    24690109.451     -319363.4844   24690105.7434
 -14961898.553    23373785.102   -11638058.9534   23373780.3174
 -26447294.172    23660209.910   -20582261.2764   23660206.1204
 -47068338.738    20242818.645   -36649955.0064   20242811.4654
 -47092692.590    22742157.038   -36669262.5014   22742150.6084
 -33597256.023    20616767.668   -26153738.0704   20616761.6444
 -26572704.816    21419139.893   -20680476.6784   21419134.7954
 -35672546.164    20730109.546   -27772310.5594   20730102.6074
 05  4  2  0 21 29.9980000  0  8G 1G 7G 8G11G19G20G24G28
   -529364.887    24671442.540     -395800.0984   24671439.6174
 -15091027.195    23349212.249   -11738678.6684   23349207.8314
 -26416894.000    23665994.837   -20558572.9044   23665990.7864
 -47076349.844    20241294.026   -36656197.4444   20241287.1754
 -47077568.527    22745035.060   -36657477.5934   22745028.1394
 -33710604.031    20595198.182   -26242061.1624   20595192.1184
 -26678120.789    21399079.848   -20762618.9924   21399074.7654
 -35768844.945    20711784.202   -27847348.5694   20711777.3024
 05  4  2  0 21 59.9980000  0  8G 1G 7G 8G11G19G20G24G28
   -627184.305    24652827.502     -472023.0514   24652825.4704
 -15220179.312    23324635.567   -11839316.6624   23324630.8084
 -26386394.312    23671798.898   -20534807.0334   23671795.3234
 -47084140.043    20239811.556   -36662267.7424   20239804.8134
 -47062285.773    22747943.039   -36645569.0204   22747936.8654
 -33823472.086    20573720.301   -26330010.2724   20573714.3434
 -26783244.133    21379075.133   -20844533.2654   21379070.5844
 -35864639.957    20693554.809   -27921994.0354   20693547.7564
 05  4  2  0 22 29.9980000  0  8G 1G 7G 8G11G19G20G24G28
   -724728.625    24634265.682     -548031.6324   24634263.4424
 -15349355.742    23300054.487   -11939973.6114   23300049.4984
 -26355800.082    23677620.742   -20510967.4454   23677617.6294
 -47091712.832    20238370.524   -36668168.6394   20238363.6074
 -47046846.004    22750881.255   -36633538.0854   22750874.9214
 -33935859.730    20552333.538   -26417585.0534   20552327.3294
 -26888076.406    21359126.497   -20926220.7314   21359121.5554
 -35959930.863    20675421.545   -27996246.6944   20675414.7404
 05  4  2  0 22 59.9980000  0  8G 1G 7G 8G11G19G20G24G28
   -821993.828    24615756.139     -623822.6994   24615755.0714
 -15478554.492    23275468.452   -12040647.9314   23275463.3654
 -26325113.328    23683461.233   -20487055.7324   23683457.1584
 -47099067.875    20236971.114   -36673899.8454   20236963.9914
 -47031247.660    22753850.231   -36621383.6064   22753843.3214
 -34047763.543    20531038.751   -26504782.7964   20531032.5794
 -26992616.488    21339232.830   -21007680.5144   21339228.1814
 -36054714.719    20657385.139   -28070104.2434   20657378.5164
 05  4  2  0 23 29.9980000  0  8G 1G 7G 8G11G19G20G24G28
   -918976.859    24597300.819     -699393.8974   24597299.2384
 -15607774.102    23250878.848   -12141338.5074   23250873.8204
 -26294336.363    23689317.895   -20463073.7854   23689313.8524
 -47106206.078    20235612.688   -36679462.1054   20235605.6514
 -47015490.152    22756847.962   -36609105.1214   22756842.2134
 -34159180.863    20509836.993   -26591601.4644   20509830.8144
 -27096863.848    21319395.410   -21088912.2034   21319390.5524
 -36148988.855    20639445.281   -28143564.6074   20639438.5744
 05  4  2  0 23 59.9980000  0  8G 1G 7G 8G11G19G20G24G28
  -1015675.359    24578899.748     -774743.4264   24578897.7614
 -15737014.219    23226284.780   -12242045.0904   23226279.5074
 -26263472.930    23695191.033   -20439024.4214   23695186.8764
 -47113129.125    20234295.187   -36684856.7034   20234288.0494
 -46999573.848    22759876.752   -36596702.8474   22759871.1984
 -34270110.211    20488727.793   -26678039.9004   20488721.5674
 -27200819.277    21299613.296   -21169916.4044   21299608.1094
 -36242751.805    20621602.788   -28216626.6484   20621595.6874
 05  4  2  0 24 29.9980000  0  8G 1G 7G 8G11G19G20G24G28
  -1112084.148    24560554.432     -849867.1844   24560551.5394
 -15866271.117    23201688.125   -12342764.7234   23201683.4244
 -26232523.402    23701080.298   -20414908.0124   23701076.1824
 -47119835.496    20233018.935   -36690082.4574   20233012.3964
 -46983495.906    22762936.866   -36584174.6634   22762929.8034
 -34380546.527    20467712.398   -26764094.1564   20467706.1804
 -27304479.938    21279887.302   -21250690.9294   21279882.3544
 -36335998.828    20603858.480   -28289286.6624   20603851.4064
 05  4  2  0 24 59.9980000  0  8G 1G 7G 8G11G19G20G24G28
  -1208206.105    24542262.825     -924767.4904   24542259.7834
 -15995549.586    23177086.776   -12443501.1784   23177081.8794
 -26201496.777    23706984.299   -20390731.4694   23706981.2404
 -47126332.102    20231783.028   -36695144.7694   20231775.7924
 -46967261.617    22766026.100   -36571524.6294   22766019.4114
 -34490493.148    20446790.398   -26849766.8314   20446784.2684
 -27407851.262    21260216.440   -21331239.9974   21260211.7894
 -36428733.730    20586211.783   -28361547.6144   20586204.5284
 05  4  2  0 25 29.9980000  0  8G 1G 7G 8G11G19G20G24G28
  -1304039.145    24524026.212     -999442.5704   24524024.1214
 -16124849.242    23152482.203   -12544254.1264   23152477.8824
 -26170396.586    23712902.413   -20366497.6424   23712899.3274
 -47132620.664    20230586.477   -36700044.9674   20230579.3444
 -46950871.562    22769144.754   -36558753.2284   22769138.3854
 -34599949.082    20425961.695   -26935057.1454   20425955.5364
 -27510934.031    21240600.237   -21411564.1934   21240595.6854
 -36520955.230    20568662.546   -28433408.5174   20568655.5904
 05  4  2  0 25 59.9980000  0  8G 1G 7G 8G11G19G20G24G28
  -1399580.336    24505844.531    -1073890.2584   24505843.1304
 -16254168.746    23127873.656   -12645022.5174   23127869.0694
 -26139225.820    23718834.519   -20342208.8414   23718830.4584
 -47138702.109    20229428.863   -36704783.7594   20229421.6124
 -46934325.117    22772293.610   -36545859.9514   22772286.6244
 -34708911.570    20405226.930   -27019962.9614   20405220.5054
 -27613727.633    21221039.251   -21491663.0694   21221034.7714
 -36612661.223    20551211.494   -28504867.7384   20551204.3134
 05  4  2  0 26 29.9980000  0  8G 1G 7G 8G11G19G20G24G28
  -1494826.816    24487720.896    -1148108.3644   24487718.6464
 -16383506.984    23103261.628   -12745805.5434   23103256.5684
 -26107987.371    23724779.182   -20317867.2504   23724775.4864
 -47144577.418    20228311.079   -36709361.9384   20228303.8544
 -46917622.070    22775472.417   -36532844.6694   22775465.6364
 -34817378.496    20384586.171   -27104482.6294   20384579.9134
 -27716232.340    21201533.442   -21571536.8494   21201528.4944
 -36703849.410    20533858.784   -28575923.4594   20533851.8784
 05  4  2  0 26 59.9980000  0  8G 1G 7G 8G11G19G20G24G28
  -1589776.176    24469652.944    -1222094.7774   24469650.4014
 -16512863.184    23078645.762   -12846602.5514   23078640.8774
 -26076684.422    23730735.664   -20293475.4354   23730731.6954
 -47150247.781    20227231.580   -36713780.4194   20227224.9324
 -46900762.254    22778681.181   -36519707.2114   22778673.8404
 -34925347.984    20364040.008   -27188614.6784   20364033.9514
 -27818448.387    21182082.388   -21651185.7034   21182077.4304
 -36794518.281    20516604.943   -28646574.5334   20516597.9704
 05  4  2  0 27 29.9980000  0  8G 1G 7G 8G11G19G20G24G28
  -1684424.184    24451640.578    -1295846.5134   24451639.1644
 -16642234.730    23054026.816   -12947411.5494   23054022.2844
 -26045318.785    23736704.778   -20269034.8164   23736701.3464
 -47155713.035    20226191.372   -36718039.0744   20226184.8914
 -46883744.059    22781919.084   -36506446.3604   22781912.6114
 -35032816.242    20343589.508   -27272356.1654   20343583.4954
 -27920373.984    21162686.442   -21730608.2104   21162681.7764
 -36884664.164    20499450.799   -28716818.0694   20499444.5454
 05  4  2  0 27 59.9980000  0  8G 1G 7G 8G11G19G20G24G28
  -1778767.910    24433688.310    -1369361.0704   24433686.6294
 -16771620.488    23029405.302   -13048231.5524   23029401.1404
 -26013893.027    23742685.240   -20244547.2174   23742680.4494
 -47160974.348    20225190.470   -36722138.8224   20225183.6624
 -46866567.094    22785188.148   -36493061.7794   22785181.2324
 -35139780.949    20323234.948   -27355705.2634   20323228.8974
 -28022008.895    21143346.051   -21809804.2304   21143340.9684
 -36974285.172    20482396.401   -28786652.6174   20482389.8554
 05  4  2  0 28 29.9980000  0  8G 1G 7G 8G11G19G20G24G28
  -1872805.871    24415792.688    -1442637.3364   24415791.5094
 -16901020.465    23004781.896   -13149062.6704   23004776.9554
 -25982411.098    23748675.860   -20220015.9204   23748671.6464
 -47166033.508    20224227.915   -36726081.0314   20224220.8564
 -46849232.113    22788486.935   -36479554.0754   22788479.8944
 -35246241.266    20302976.252   -27438661.3414   20302970.2444
 -28123354.148    21124060.466   -21888774.5414   21124055.8404
 -37063380.469    20465442.183   -28856077.5214   20465436.1074
 05  4  2  0 28 59.9980000  0  8G 1G 7G 8G11G19G20G24G28
  -1966535.770    24397957.025    -1515673.5794   24397955.6914
 -17030433.891    22980155.064   -13249904.2784   22980150.4304
 -25950877.258    23754676.523   -20195444.2034   23754672.5394
 -47170892.070    20223303.362   -36729866.9374   20223296.3774
 -46831739.648    22791815.755   -36465923.6464   22791809.0644
 -35352195.688    20282813.833   -27521223.2074   20282807.5364
 -28224410.438    21104830.200   -21967519.6814   21104825.1914
 -37151948.613    20448588.228   -28925091.6504   20448581.9224
 05  4  2  0 29 29.9980000  0  8G 1G 7G 8G11G19G20G24G28
  -2059957.133    24380179.842    -1588469.3524   24380177.6964
 -17159861.918    22955525.740   -13350757.2414   22955520.8474
 -25919295.984    23760685.930   -20170835.4894   23760681.7224
 -47175553.250    20222416.483   -36733499.0384   20222409.3114
 -46814091.324    22795173.654   -36452171.7744   22795167.1614
 -35457644.273    20262747.636   -27603390.9274   20262741.2354
 -28325180.098    21085654.670   -22046041.4764   21085649.4674
 -37239989.926    20431834.743   -28993695.2624   20431827.9584
 05  4  2  0 29 59.9980000  0  8G 1G 7G 8G11G19G20G24G28
  -2153064.680    24362461.108    -1661020.5714   24362459.7674
 -17289301.020    22930894.236   -13451618.8574   22930889.4364
 -25887667.930    23766704.546   -20146190.3004   23766701.0524
 -47180015.742    20221567.213   -36736976.3324   20221559.9184
 -46796284.359    22798562.271   -36438296.2634   22798556.2244
 -35562582.332    20242778.357   -27685160.8254   20242772.4434
 -28425660.402    21066533.742   -22124337.8024   21066528.7724
 -37327500.215    20415182.052   -29061885.1074   20415175.1364
 05  4  2  0 30 29.9980000  0  8G 1G 7G 8G11G19G20G24G28
  -2245855.996    24344803.900    -1733325.4224   24344802.0354
 -17418750.031    22906261.299   -13552488.2044   22906256.1464
 -25855996.402    23772732.252   -20121511.2874   23772727.3394
 -47184280.770    20220755.465   -36740299.7494   20220748.6174
 -46778318.895    22801981.352   -36424297.2804   22801975.1794
 -35667007.941    20222906.911   -27766531.4074   20222900.7084
 -28525851.500    21047467.707   -22202408.7714   21047463.3254
 -37414477.656    20398630.621   -29129659.7454   20398624.1914
 05  4  2  0 30 59.9980000  0  8G 1G 7G 8G11G19G20G24G28
  -2338328.125    24327206.867    -1805381.5294   24327205.6084
 -17548207.535    22881626.213   -13653364.1564   22881621.1814
 -25824283.695    23778766.581   -20096800.1634   23778762.0204
 -47188349.172    20219981.734   -36743469.9474   20219974.7594
 -46760194.254    22805430.463   -36410174.2484   22805423.9884
 -35770918.895    20203133.268   -27847500.9644   20203126.7114
 -28625752.992    21028457.069   -22280254.0664   21028452.5934
 -37500919.871    20382181.192   -29197017.3054   20382174.6654
 05  4  2  0 31 29.9980000  0  8G 1G 7G 8G11G19G20G24G28
  -2430482.207    24309670.898    -1877189.7474   24309669.4514
 -17677676.020    22856989.516   -13754248.6514   22856984.5654
 -25792536.434    23784807.860   -20072062.1084   23784803.0474
 -47192225.141    20219243.967   -36746490.2044   20219237.3374
 -46741913.977    22808909.509   -36395929.9514   22808902.4224
 -35874317.094    20183457.066   -27928070.9724   20183451.0584
 -28725368.695    21009501.157   -22357876.6764   21009496.2874
 -37586829.055    20365833.353   -29263959.5224   20365826.7824
 05  4  2  0 31 59.9980000  0  8G 1G 7G 8G11G19G20G24G28
  -2522314.531    24292195.582    -1948747.2194   24292193.2444
 -17807153.488    22832350.089   -13855140.1594   22832345.8034
 -25760756.480    23790855.382   -20047298.5694   23790851.3614
 -47195909.188    20218542.732   -36749360.9084   20218536.0794
 -46723476.719    22812417.450   -36381563.2874   22812410.9084
 -35977199.352    20163879.244   -28008238.9474   20163873.0774
 -28824697.699    20990599.129   -22435275.8824   20990593.9294
 -37672202.340    20349587.556   -29330484.1524   20349580.6194
 05  4  2  0 32 29.9980000  0  8G 1G 7G 8G11G19G20G24G28
  -2613821.883    24274781.853    -2020051.5294   24274780.1564
 -17936638.109    22807709.951   -13956037.2614   22807705.3874
 -25728946.637    23796909.283   -20022511.7864   23796904.6754
 -47199401.824    20217878.245   -36752082.4644   20217871.3814
 -46704881.773    22815956.431   -36367073.8154   22815950.0354
 -36079563.137    20144399.962   -28088002.9104   20144393.7094
 -28923739.445    20971751.760   -22512451.2514   20971746.6754
 -37757037.477    20333443.989   -29396589.4484   20333436.7964
 05  4  2  0 32 59.9980000  0  8G 1G 7G 8G11G19G20G24G28
  -2705005.297    24257430.330    -2091103.3824   24257428.2034
 -18066132.234    22783068.573   -14056941.7264   22783063.4684
 -25697113.441    23802966.149   -19997706.7884   23802962.8954
 -47202707.605    20217249.195   -36754658.4014   20217242.3214
 -46686132.492    22819523.922   -36352464.0624   22819517.4114
 -36181410.371    20125019.080   -28167364.3794   20125012.9524
 -29022497.387    20952959.177   -22589405.4694   20952953.9274
 -37841336.043    20317402.375   -29462276.6394   20317395.3554
 05  4  2  0 33 29.9980000  0  8G 1G 7G 8G11G19G20G24G28
  -2795858.246    24240141.312    -2161897.7594   24240139.1144
 -18195630.699    22758426.116   -14157849.6024   22758420.2144
 -25665255.508    23809028.909   -19972882.5104   23809025.2464
 -47205823.113    20216656.490   -36757086.0814   20216649.7214
 -46667224.598    22823121.908   -36337730.7234   22823115.5084
 -36282734.934    20105737.663   -28246318.5594   20105731.5914
 -29120967.531    20934221.163   -22666135.4374   20934216.1414
 -37925092.559    20301464.050   -29527541.4584   20301457.6424
 05  4  2  0 33 59.9980000  0  8G 1G 7G 8G11G19G20G24G28
  -2886380.812    24222915.157    -2232434.6644   24222913.6224
 -18325135.117    22733781.404   -14258762.1014   22733777.0474
 -25633378.848    23815094.621   -19948043.6364   23815090.8464
 -47208752.492    20216098.754   -36759368.7274   20216091.9294
 -46648160.945    22826749.780   -36322876.0254   22826743.0864
 -36383537.707    20086555.773   -28324866.1534   20086549.8574
 -29219153.059    20915537.050   -22742643.6154   20915531.9964
 -38008308.195    20285628.571   -29592384.8164   20285622.1344
 05  4  2  0 34 29.9980000  0  8G 1G 7G 8G11G19G20G24G28
  -2976572.031    24205752.056    -2302713.3764   24205750.5294
 -18454645.762    22709136.498   -14359679.4594   22709131.5614
 -25601487.832    23821163.902   -19923193.6514   23821159.9264
 -47211498.199    20215576.265   -36761508.2534   20215569.8114
 -46628942.648    22830406.639   -36307900.8314   22830400.4584
 -36483818.523    20067473.063   -28403007.0344   20067466.7834
 -29317055.328    20896906.834   -22818931.0664   20896901.6764
 -38090982.594    20269896.269   -29656806.4204   20269889.3714
 05  4  2  0 34 59.9980000  0  8G 1G 7G 8G11G19G20G24G28
  -3066427.848    24188653.903    -2372730.7584   24188651.2454
 -18584159.852    22684490.952   -14460599.4964   22684486.0484
 -25569583.824    23827234.825   -19898333.3934   23827230.0814
 -47214059.922    20215088.745   -36763504.4134   20215082.2474
 -46609567.836    22834093.965   -36292803.6324   22834087.7944
 -36583573.840    20048490.101   -28480738.4224   20048484.0004
 -29414672.980    20878330.744   -22894996.7514   20878325.8604
 -38173112.492    20254267.332   -29720803.7494   20254260.5794
 05  4  2  0 35 29.9980000  0  8G 1G 7G 8G11G19G20G24G28
  -3155945.801    24171618.325    -2442484.8804   24171616.7124
 -18713676.355    22659844.441   -14561521.4594   22659839.8254
 -25537669.699    23833307.807   -19873465.3194   23833303.4864
 -47216438.777    20214636.349   -36765358.0694   20214629.6094
 -46590036.668    22837810.463   -36277584.6074   22837804.3984
 -36682802.145    20029607.393   -28558059.1554   20029601.3134
 -29512005.984    20859808.709   -22970840.6274   20859803.7704
 -38254696.555    20238742.417   -29784375.7444   20238735.3244
 05  4  2  0 35 59.9980000  0  8G 1G 7G 8G11G19G20G24G28
  -3245124.527    24154648.379    -2511974.7124   24154646.7174
 -18843195.148    22635197.858   -14662445.1644   22635193.4074
 -25505749.594    23839382.201   -19848592.5614   23839378.8404
 -47218636.719    20214218.001   -36767070.7474   20214211.1284
 -46570350.160    22841557.210   -36262244.5544   22841551.0204
 -36781502.652    20010825.370   -28634968.6264   20010819.4724
 -29609055.781    20841340.669   -23046463.8184   20841335.7964
 -38335734.371    20223321.178   -29847522.1014   20223314.5724
 05  4  2  0 36 29.9970000  0  8G 1G 7G 8G11G19G20G24G28
  -3333957.734    24137743.930    -2581195.2914   24137741.3624
 -18972709.750    22610552.241   -14763365.6304   22610547.5514
 -25473826.895    23845456.932   -19823717.8684   23845453.4054
 -47220653.879    20213834.353   -36768642.5744   20213827.7024
 -46550507.723    22845333.001   -36246782.9754   22845326.5614
 -36879669.469    19992144.775   -28711462.2384   19992138.8374
 -29705818.281    20822927.210   -23121863.1554   20822922.2504
 -38416220.738    20208005.251   -29910238.7464   20207998.2274
 05  4  2  0 36 59.9970000  0  8G 1G 7G 8G11G19G20G24G28
  -3422451.895    24120903.402    -2650151.6724   24120901.5454
 -19102230.625    22585905.500   -14864290.9864   22585900.1484
 -25441905.258    23851530.821   -19798844.0144   23851528.5534
 -47222494.168    20213484.240   -36770076.5684   20213477.2484
 -46530510.824    22849137.923   -36231201.0404   22849131.9054
 -36977310.402    19973564.381   -28787546.0654   19973558.1884
 -29802303.082    20804567.100   -23197046.0914   20804561.9154
 -38496162.262    20192792.854   -29972530.8384   20192785.7614
 05  4  2  0 37 29.9970000  0  9G 1G 4G 7G 8G11G19G20G24G28
  -3510598.344    24104130.129    -2718837.0844   24104127.9544
    -51250.8671   24149472.529
 -19231749.008    22561258.428   -14965214.3614   22561253.7124
 -25409985.332    23857605.553   -19773971.3484   23857602.1104
 -47224155.637    20213167.989   -36771371.2194   20213161.0844
 -46510356.957    22852973.562   -36215496.7984   22852967.1064
 -37074417.332    19955085.505   -28863213.7904   19955079.2264
 -29898503.922    20786260.707   -23272007.7664   20786255.2644
 -38575552.008    20177685.575   -30034392.9824   20177678.8684
 05  4  2  0 37 59.9970000  0  9G 1G 4G 7G 8G11G19G20G24G28
  -3598396.203    24087422.576    -2787250.9514   24087420.0134
   -191398.586    24122803.370     -125694.9225   24122799.6894
 -19361265.176    22536612.455   -15066136.0324   22536607.5194
 -25378071.633    23863678.607   -19749103.6404   23863675.5004
 -47225640.734    20212885.275   -36772528.4424   20212878.2824
 -46490047.766    22856838.068   -36199671.5144   22856831.8654
 -37170990.160    19936708.452   -28938465.3314   19936702.3574
 -29994422.598    20768008.079   -23346749.5854   20768002.5314
 -38654389.629    20162683.050   -30095824.8824   20162676.6934
 05  4  2  0 38 29.9970000  0  9G 1G 4G 7G 8G11G19G20G24G28
  -3685847.453    24070781.160    -2855394.6934   24070779.5434
   -331431.348    24096156.049     -234811.3754   24096152.3004
 -19490782.363    22511966.105   -15167058.4784   22511961.0144
 -25346171.234    23869749.162   -19724246.2374   23869744.9664
 -47226954.891    20212635.204   -36773552.4904   20212628.6284
 -46469587.320    22860732.430   -36183728.3884   22860726.1934
 -37267031.543    19918432.359   -29013302.7544   19918425.9554
 -30090063.621    20749808.059   -23421275.0554   20749802.6464
 -38732678.238    20147785.443   -30156828.9984   20147778.6484
 05  4  2  0 38 59.9970000  0  9G 1G 4G 7G 8G11G19G20G24G28
  -3772955.824    24054205.208    -2923271.2924   24054202.9734
   -471354.535    24069529.156     -343842.4264   24069525.4664
 -19620305.555    22487318.634   -15267985.6074   22487313.6604
 -25314293.664    23875815.569   -19699406.6554   23875812.0614
 -47228105.203    20212416.318   -36774448.8454   20212409.5194
 -46448981.621    22864652.955   -36167672.0874   22864646.7014
 -37362546.168    19900256.576   -29087729.7294   19900250.0574
 -30185433.250    20731659.920   -23495589.0334   20731654.4884
 -38810422.520    20132991.346   -30217408.9674   20132984.3744
 05  4  2  0 39 29.9970000  0  9G 1G 4G 7G 8G11G19G20G24G28
  -3859717.168    24037694.502    -2990877.4684   24037692.9674
   -611165.918    24042924.537     -452786.3554   24042920.9924
 -19749831.586    22462670.921   -15368914.9724   22462666.2684
 -25282439.781    23881876.906   -19674585.6254   23881874.4024
 -47229091.020    20212228.760   -36775217.0304   20212222.2104
 -46428228.641    22868602.250   -36151501.0224   22868595.4244
 -37457530.664    19882181.561   -29161743.6044   19882175.2554
 -30280530.004    20713563.322   -23569690.3964   20713558.3814
 -38887619.285    20118301.216   -30277562.2794   20118294.4994
 05  4  2  0 39 59.9970000  0  9G 1G 4G 7G 8G11G19G20G24G28
  -3946129.559    24021251.207    -3058211.7584   24021248.3464
   -750864.711    24016340.839     -561642.5924   24016336.8574
 -19879359.664    22438022.383   -15469845.9054   22438017.5384
 -25250613.223    23887933.378   -19649785.8084   23887931.5174
 -47229913.832    20212072.086   -36775858.2004   20212065.2044
 -46407328.918    22872579.042   -36135215.6044   22872573.1634
 -37551983.730    19864207.588   -29235343.3884   19864201.4084
 -30375354.406    20695518.793   -23643579.5184   20695513.7204
 -38964267.613    20103715.314   -30337288.2564   20103708.6254
 05  4  2  0 40 29.9970000  0  9G 1G 4G 7G 8G11G19G20G24G28
  -4032191.039    24004874.186    -3125272.6514   24004871.8394
   -890450.879    23989779.383     -670410.9924   23989774.4534
 -20008888.969    22413373.453   -15570777.7814   22413369.3184
 -25218816.969    23893984.267   -19625009.6254   23893981.1574
 -47230574.910    20211946.523   -36776373.3314   20211939.4104
 -46386282.645    22876584.428   -36118815.9984   22876578.4034
 -37645904.285    19846335.416   -29308528.2254   19846329.2484
 -30469907.297    20677526.022   -23717257.0784   20677521.1644
 -39040366.562    20089234.334   -30396586.1374   20089227.6584
 05  4  2  0 40 59.9970000  0  9G 1G 4G 7G 8G11G19G20G24G28
  -4117898.930    23988565.206    -3192058.0194   23988561.6984
  -1029923.371    23963237.605     -779090.8214   23963232.9174
 -20138417.934    22388724.498   -15671709.3984   22388720.1294
 -25187053.727    23900028.851   -19600259.1074   23900024.8444
 -47231074.898    20211851.377   -36776762.9444   20211844.5824
 -46365089.516    22880617.579   -36102301.9464   22880611.5764
 -37739290.664    19828564.438   -29381296.8214   19828558.3724
 -30564188.371    20659584.966   -23790722.8424   20659580.1514
 -39115914.527    20074858.200   -30455454.6994   20074851.2284
 05  4  2  0 41 29.9970000  0  9G 1G 4G 7G 8G11G19G20G24G28
  -4203248.496    23972323.194    -3258564.0814   23972320.1594
  -1169279.238    23936718.750     -887679.7584   23936715.1264
 -20267942.859    22364077.360   -15772637.8684   22364072.0684
 -25155323.730    23906066.856   -19575534.5254   23906063.4664
 -47231412.398    20211787.106   -36777025.9574   20211780.2904
 -46343747.164    22884678.649   -36085671.6214   22884673.4844
 -37832138.984    19810895.601   -29453646.1484   19810889.4394
 -30658195.547    20641695.937   -23863975.1744   20641690.8944
 -39190907.637    20060587.278   -30513890.8854   20060580.7624
 05  4  2  0 41 59.9970000  0  9G 1G 4G 7G 8G11G19G20G24G28
  -4288238.051    23956150.532    -3324789.6524   23956147.1944
  -1308518.234    23910222.829     -996177.6804   23910218.6024
 -20397463.176    22339430.110   -15873562.7384   22339425.5634
 -25123630.844    23912097.773   -19550838.9064   23912094.4774
 -47231589.273    20211753.313   -36777163.7894   20211746.5864
 -46322256.215    22888768.384   -36068925.4974   22888762.6064
 -37924448.273    19793330.076   -29525575.4544   19793323.7164
 -30751929.691    20623859.234   -23937014.7634   20623853.9264
 -39265345.332    20046422.091   -30571894.2804   20046415.4914
 05  4  2  0 42 29.9970000  0  9G 1G 4G 7G 8G11G19G20G24G28
  -4372865.004    23940045.769    -3390732.6954   23940043.3784
  -1447639.266    23883748.499    -1104583.6194   23883744.2084
 -20526977.133    22314784.293   -15974482.6804   22314779.5974
 -25091977.902    23918121.295   -19526174.3704   23918118.2524
 -47231606.160    20211749.819   -36777176.9514   20211743.2694
 -46300615.949    22892886.255   -36052063.0254   22892880.6174
 -38016216.809    19775866.945   -29597083.3884   19775860.9034
 -30845390.379    20606074.162   -24009841.2674   20606068.8254
 -39339226.164    20032363.282   -30629463.7644   20032356.5694
 05  4  2  0 42 59.9970000  0  9G 1G 4G 7G 8G11G19G20G24G28
  -4457123.844    23924012.047    -3456388.8254   23924009.3274
  -1586638.445    23857298.489    -1212894.6134   23857294.0414
 -20656480.348    22290140.583   -16075394.2374   22290136.0284
 -25060363.840    23924137.441   -19501540.1614   23924134.4304
 -47231460.539    20211777.964   -36777063.4954   20211771.1184
 -46278823.332    22897033.385   -36035081.8394   22897027.6884
 -38107439.855    19758507.518   -29668166.2804   19758501.3434
 -30938575.066    20588341.553   -24082452.6974   20588336.7044
 -39412545.438    20018411.020   -30686595.6694   20018404.3294
 05  4  2  0 43 29.9970000  0  9G 1G 4G 7G 8G11G19G20G24G28
  -4541015.086    23908048.242    -3521758.6074   23908045.1924
  -1725517.820    23830870.415    -1321112.3094   23830866.3194
 -20785973.996    22265498.684   -16176298.3744   22265494.0704
 -25028794.723    23930144.593   -19476940.9404   23930142.5504
 -47231156.207    20211835.855   -36776826.3664   20211828.8684
 -46256880.855    22901209.296   -36017983.9014   22901203.2894
 -38198118.824    19741252.444   -29738825.2034   19741246.0434
 -31031486.609    20570661.196   -24154851.3014   20570656.1154
 -39485304.656    20004565.509   -30743291.1744   20004558.6394
 05  4  2  0 43 59.9970000  0  9G 1G 4G 7G 8G11G19G20G24G28
  -4624534.469    23892153.783    -3586838.5864   23892152.0864
  -1864274.906    23804466.821    -1429234.6844   23804462.4084
 -20915454.930    22240859.197   -16277192.5774   22240854.5254
 -24997271.098    23936144.009   -19452377.2054   23936140.9284
 -47230692.270    20211924.172   -36776464.8584   20211917.4654
 -46234786.688    22905413.439   -36000767.7564   22905408.1594
 -38288250.535    19724100.821   -29809057.6904   19724094.4844
 -31124123.258    20553032.961   -24227035.6974   20553027.8594
 -39557500.738    19990827.336   -30799547.8604   19990820.2214
 05  4  2  0 44 29.9970000  0  9G 1G 4G 7G 8G11G19G20G24G28
  -4707680.305    23876332.206    -3651627.5624   23876329.7234
  -2002909.242    23778084.598    -1537261.4234   23778080.3814
 -21044922.176    22216222.373   -16378076.1004   22216217.6984
 -24965796.332    23942133.395   -19427851.5514   23942130.4714
 -47230069.961    20212042.552   -36775979.9424   20212035.8904
 -46212541.215    22909647.028   -35983433.6874   22909640.7474
 -38377833.781    19707053.570   -29878862.8044   19707047.3534
 -31216485.699    20535456.876   -24299006.4154   20535451.6224
 -39629132.926    19977195.931   -30855365.1524   19977189.0024
 05  4  2  0 44 59.9970000  0  9G 1G 4G 7G 8G11G19G20G24G28
  -4790449.133    23860582.025    -3716122.6584   23860580.4214
  -2141419.211    23751727.456    -1645191.2684   23751723.3544
 -21174373.453    22191588.531   -16478947.1934   22191583.9674
 -24934372.238    23948113.023   -19403365.3104   23948109.2484
 -47229289.172    20212191.061   -36775371.5444   20212184.4124
 -46190143.176    22913909.040   -35965980.7564   22913902.8854
 -38466866.160    19690111.376   -29948238.6644   19690104.8214
 -31308573.164    20517933.544   -24370762.8784   20517928.2344
 -39700199.156    19963672.455   -30910741.4334   19963665.7364
 05  4  2  0 45 29.9970000  0  9G 1G 4G 7G 8G11G19G20G24G28
  -4872844.258    23844902.252    -3780326.6314   23844900.3264
  -2279809.777    23725391.966    -1753028.0224   23725388.4174
 -21303812.883    22166957.332   -16579809.0494   22166952.6054
 -24903006.926    23954081.907   -19378924.8634   23954078.5454
 -47228356.539    20212368.789   -36774644.8244   20212362.1244
 -46167598.293    22918199.800   -35948413.3734   22918193.2274
 -38555352.051    19673273.001   -30017188.6964   19673266.7274
 -31400391.574    20500460.707   -24442309.6824   20500455.5364
 -39770703.586    19950255.990   -30965679.9644   19950249.1614
 05  4  2  0 45 59.9970000  0  9G 1G 4G 7G 8G11G19G20G24G28
  -4954861.066    23829295.283    -3844235.7684   23829292.9114
  -2418077.547    23699080.820    -1860769.1214   23699076.6514
 -21433236.668    22142328.783   -16680658.6984   22142323.6604
 -24871700.664    23960039.323   -19354530.4894   23960035.9054
 -47227270.371    20212575.390   -36773798.4624   20212568.3634
 -46144903.875    22922518.087   -35930729.4834   22922511.9084
 -38643287.680    19656539.390   -30085709.9524   19656533.0404
 -31491938.660    20483039.829   -24513645.0714   20483034.2074
 -39840642.840    19936946.795   -31020178.0824   19936939.9754
 05  4  2  0 46 29.9970000  0  9G 1G 4G 7G 8G11G19G20G24G28
  -5036494.449    23813760.860    -3907846.0564   23813758.6724
  -2556219.211    23672792.889    -1968412.0074   23672789.6604
 -21562640.336    22117704.142   -16781492.6914   22117699.2094
 -24840453.801    23965985.350   -19330182.4394   23965981.9364
 -47226028.570    20212811.566   -36772830.8394   20212804.8644
 -46122057.129    22926865.639   -35912926.8934   22926860.0444
 -38730668.902    19639911.340   -30153799.1944   19639904.9504
 -31583211.641    20465671.020   -24584766.8704   20465665.9634
 -39910012.793    19923746.365   -31074232.5944   19923739.4894
 05  4  2  0 46 59.9970000  0  9G 1G 4G 7G 8G11G19G20G24G28
  -5117745.766    23798299.458    -3971158.7584   23798297.2694
  -2694237.375    23646529.649    -2075958.5894   23646525.1914
 -21692026.301    22093083.177   -16882312.8884   22093078.1104
 -24809272.629    23971919.365   -19305885.5264   23971916.3814
 -47224635.691    20213076.767   -36771745.4904   20213070.2144
 -46099061.418    22931241.137   -35895008.2414   22931236.0894
 -38817497.945    19623388.149   -30221458.1784   19623381.9974
 -31674214.738    20448354.016   -24655678.3644   20448348.9534
 -39978816.000    19910653.353   -31127845.4844   19910646.8804
 05  4  2  0 47 29.9970000  0  9G 1G 4G 7G 8G11G19G20G24G28
  -5198612.992    23782911.233    -4034172.0554   23782908.0624
  -2832131.711    23620288.762    -2183408.7814   23620284.7174
 -21821393.176    22068465.179   -16983118.2184   22068460.1604
 -24778159.930    23977839.894   -19281642.0354   23977837.0604
 -47223092.926    20213370.179   -36770543.3464   20213363.9094
 -46075917.039    22935646.496   -35876973.7424   22935640.6124
 -38903773.887    19606970.363   -30288686.1634   19606963.9884
 -31764948.168    20431087.944   -24726379.7244   20431082.6774
 -40047051.324    19897668.531   -31181015.8714   19897662.0484
 05  4  2  0 47 59.9970000  0  9G 1G 4G 7G 8G11G19G20G24G28
  -5279092.668    23767596.600    -4096883.3704   23767593.5864
  -2969900.285    23594072.060    -2290760.9954   23594068.4754
 -21950738.234    22043851.664   -17083906.5614   22043846.9174
 -24747117.195    23983747.150   -19257453.0274   23983744.4334
 -47221399.871    20213692.377   -36769224.0904   20213685.8254
 -46052622.578    22940078.926   -35858822.3404   22940073.0024
 -38989494.184    19590658.274   -30355481.1934   19590652.1714
 -31855410.590    20413873.265   -24796869.9314   20413868.4844
 -40114716.746    19884792.487   -31233742.1764   19884785.6974
 05  4  2  0 48 29.9970000  0  9G 1G 4G 7G 8G11G19G20G24G28
  -5359182.688    23752354.474    -4159291.1524   23752352.3624
  -3107542.371    23567879.184    -2398014.5084   23567876.2704
 -22080060.027    22019242.270   -17184676.7304   22019237.5834
 -24716146.852    23989640.008   -19233320.4224   23989637.6994
 -47219557.387    20214042.966   -36767788.4124   20214036.4924
 -46029177.938    22944540.308   -35840553.8864   22944534.5314
 -39074657.578    19574452.217   -30421842.2524   19574445.8264
 -31945602.660    20396710.387   -24867149.4394   20396705.6464
 -40181811.215    19872024.941   -31286023.5944   19872017.9384
 05  4  2  0 48 59.9970000  0  9G 1G 4G 7G 8G11G19G20G24G28
  -5438878.055    23737189.606    -4221391.3314   23737187.3404
  -3245054.230    23541712.083    -2505166.5474   23541708.3114
 -22209354.246    21994638.564   -17285425.4404   21994633.4914
 -24685248.926    23995519.842   -19209244.2304   23995517.9544
 -47217563.145    20214422.586   -36766234.4774   20214415.8354
 -46005580.152    22949030.374   -35822166.0934   22949025.0824
 -39159259.824    19558353.144   -30487766.0744   19558346.7804
 -32035521.812    20379599.539   -24937216.3144   20379594.5254
 -40248330.848    19859366.578   -31337857.0774   19859359.9084
 05  4  2  0 49 29.9970000  0  9G 1G 4G 7G 8G11G19G20G24G28
  -5518180.180    23722098.846    -4283185.1034   23722095.9564
  -3382439.105    23515568.594    -2612219.6634   23515564.6464
 -22338622.887    21970039.360   -17386154.1994   21970034.5414
 -24654429.789    24001385.003   -19185229.4384   24001382.1444
 -47215421.746    20214830.109   -36764565.8444   20214823.4774
 -45981832.926    22953549.635   -35803661.8594   22953544.0714
 -39243303.621    19542359.877   -30553254.7224   19542353.8834
 -32125171.703    20362539.638   -25007073.3584   20362534.7364
 -40314278.234    19846816.983   -31389244.6524   19846810.1924
 05  4  2  0 49 59.9970000  0  9G 1G 4G 7G 8G11G19G20G24G28
  -5597088.520    23707082.800    -4344671.9564   23707080.1514
  -3519697.656    23489449.399    -2719174.4324   23489444.7764
 -22467866.258    21945445.074   -17486863.3054   21945440.3894
 -24623693.938    24007232.903   -19161279.5554   24007231.2254
 -47213136.102    20215265.065   -36762784.8294   20215258.3614
 -45957937.789    22958096.766   -35785042.3774   22958091.1764
 -39326789.277    19526472.931   -30618308.4744   19526467.1464
 -32214554.051    20345530.661   -25076721.9184   20345525.7394
 -40379653.883    19834376.447   -31440186.7204   19834369.9404
 05  4  2  0 50 29.9970000  0  9G 1G 4G 7G 8G11G19G20G24G28
  -5675597.152    23692143.324    -4405847.4584   23692140.3604
  -3656825.305    23463354.942    -2826027.1104   23463350.7974
 -22597078.766    21920857.072   -17587548.3564   21920851.8094
 -24593039.785    24013067.845   -19137393.3454   24013065.1204
 -47210702.570    20215728.124   -36760888.6044   20215721.4164
 -45933890.688    22962672.636   -35766304.5024   22962667.1604
 -39409711.797    19510693.615   -30682923.4064   19510687.3754
 -32303665.547    20328573.263   -25146159.4404   20328568.4474
 -40444452.973    19822045.531   -31490679.5174   19822038.6424
 05  4  2  0 50 59.9970000  0  9G 1G 4G 7G 8G11G19G20G24G28
  -5753704.035    23677279.570    -4466709.8204   23677277.0754
  -3793821.496    23437285.137    -2932777.3544   23437280.7424
 -22726259.145    21896274.944   -17688208.3494   21896269.3424
 -24562470.020    24018885.455   -19113572.8634   24018882.3614
 -47208122.234    20216219.215   -36758877.9824   20216212.3194
 -45909691.781    22967277.964   -35747448.3114   22967272.6604
 -39492070.184    19495021.146   -30747098.7684   19495015.1924
 -32392506.152    20311667.479   -25215385.8694   20311662.3874
 -40508674.520    19809824.720   -31540722.2874   19809818.2014
 05  4  2  0 51 29.9960000  0  9G 1G 4G 7G 8G11G19G20G24G28
  -5831408.324    23662493.762    -4527258.5574   23662490.7654
  -3930684.871    23411241.177    -3039424.1364   23411236.7504
 -22855405.238    21871698.750   -17788841.6274   21871693.5324
 -24531992.164    24024684.611   -19089824.0204   24024682.2374
 -47205399.441    20216737.334   -36756756.3444   20216731.0864
 -45885345.453    22971911.095   -35728477.2564   22971906.1124
 -39573864.371    19479456.476   -30810834.4784   19479450.1454
 -32481077.227    20294812.807   -25284402.2834   20294808.0584
 -40572319.703    19797713.467   -31590315.9364   19797706.6354
 05  4  2  0 51 59.9960000  0  9G 1G 4G 7G 8G11G19G20G24G28
  -5908711.633    23647782.840    -4587494.8014   23647780.5864
  -4067422.441    23385220.980    -3145972.8354   23385216.6844
 -22984522.801    21847128.424   -17889452.6764   21847123.4394
 -24501605.656    24030467.401   -19066146.3554   24030464.3994
 -47202533.645    20217282.638   -36754523.2714   20217275.7664
 -45860848.867    22976573.156   -35709389.1034   22976567.3634
 -39655097.195    19463998.104   -30874132.7754   19463991.9004
 -32569383.820    20278008.740   -25353212.6114   20278003.3084
 -40635390.387    19785711.422   -31639461.9324   19785704.8414
 05  4  2  0 52 29.9960000  0 10G 1G 4G 7G 8G11G19G20G23G24G28
  -5985610.469    23633149.208    -4647415.8664   23633146.6034
  -4204030.133    23359225.499    -3252420.3544   23359221.1864
 -23113606.957    21822564.493   -17990037.7084   21822559.4874
 -24471315.086    24036231.334   -19042543.4454   24036228.9304
 -47199526.910    20217854.952   -36752180.3854   20217848.0824
 -45836203.707    22981262.599   -35690185.1604   22981256.9654
 -39735766.113    19448647.396   -30936991.6704   19448641.2014
    -48457.4301   24169360.139
 -32657424.074    20261255.383   -25421815.3884   20261250.2604
 -40697884.453    19773819.285   -31688158.6094   19773812.6404
 05  4  2  0 52 59.9960000  0  9G 1G 4G 7G11G19G20G23G24G28
  -6062102.145    23618593.319    -4707019.6544   23618591.1644
  -4340506.664    23333254.215    -3358765.5924   23333249.8734
 -23242655.531    21798007.195   -18090594.9974   21798002.6284
 -47196379.262    20218453.874   -36749727.6904   20218446.9884
 -45811409.449    22985980.854   -35670865.0804   22985975.6064
 -39815869.664    19433404.268   -30999410.0134   19433397.9704
   -183616.582    24143640.642     -120513.7845   24143636.1394
 -32745197.656    20244552.455   -25490210.3764   20244547.5394
 -40759800.488    19762037.160   -31736404.8754   19762030.4364
 05  4  2  0 53 29.9960000  0  9G 1G 4G 7G11G19G20G23G24G28
  -6138188.203    23604114.930    -4766307.3724   23604112.4794
  -4476854.711    23307307.442    -3465010.8444   23307304.2674
 -23371670.574    21773456.669   -18191126.1574   21773451.4014
 -47193095.000    20219078.847   -36747168.5384   20219072.2054
 -45786469.523    22990726.699   -35651431.4874   22990721.8514
 -39895410.250    19418268.216   -31061389.6834   19418261.9224
   -318941.434    24117888.459     -225961.6214   24117885.0294
 -32832708.332    20227899.762   -25558400.5044   20227894.9734
 -40821141.281    19750364.167   -31784202.8934   19750357.8064
 05  4  2  0 53 59.9960000  0  9G 1G 4G 7G11G19G20G23G24G28
  -6213867.090    23589713.024    -4825277.9194   23589710.5234
  -4613074.316    23281386.699    -3571155.8974   23281382.5224
 -23500651.008    21748912.672   -18291630.3644   21748907.4174
 -47189675.797    20219729.528   -36744504.2424   20219722.6454
 -45761384.668    22995500.606   -35631884.9844   22995495.4764
 -39974387.422    19403239.173   -31122930.3344   19403232.7864
   -454429.883    24092105.519     -331536.9344   24092101.5834
 -32919957.074    20211296.901   -25626386.5384   20211291.6654
 -40881906.543    19738801.088   -31831552.4584   19738794.2004
 05  4  2  0 54 29.9960000  0  9G 1G 4G 7G11G19G20G23G24G28
  -6289135.102    23575390.033    -4883928.2264   23575388.1394
  -4749162.914    23255488.920    -3677198.8624   23255486.0134
 -23629593.414    21724375.891   -18392104.9384   21724370.7254
 -47186120.223    20220406.049   -36741733.6804   20220399.1754
 -45736152.797    23000302.351   -35612223.8994   23000296.7374
 -40052798.469    19388318.273   -31184029.8284   19388311.4714
   -590077.160    24066293.294     -437235.9454   24066288.7814
 -33006942.492    20194744.157   -25694167.3724   20194738.7604
 -40942093.773    19727347.970   -31878451.6134   19727341.1744
 05  4  2  0 54 59.9960000  0  9G 1G 4G 7G11G19G20G23G24G28
  -6363989.281    23561145.630    -4942256.0664   23561143.1944
  -4885119.062    23229617.870    -3783138.6754   23229614.1644
 -23758495.281    21699846.512   -18492547.9164   21699841.2184
 -47182427.980    20221108.507   -36738856.6314   20221101.9044
 -45710773.191    23005131.101   -35592447.7104   23005126.2074
 -40130641.602    19373505.053   -31244686.7974   19373498.5534
   -725879.535    24040450.233     -543055.9064   24040446.6994
 -33093663.973    20178241.739   -25761742.5424   20178236.5844
 -41001701.430    19716004.737   -31924899.1534   19715997.9814
 05  4  2  0 55 29.9960000  0  9G 1G 4G 7G11G19G20G23G24G28
  -6438430.609    23546980.100    -5000262.2334   23546978.0584
  -5020945.137    23203770.832    -3888977.1224   23203767.0374
 -23887357.852    21675324.600   -18592960.2924   21675319.4204
 -47178602.805    20221836.767   -36735875.9964   20221829.6464
 -45685248.660    23009988.601   -35572558.6054   23009983.1014
 -40207918.586    19358799.787   -31304902.6214   19358793.2954
   -861837.273    24014578.859     -648996.9374   24014574.9874
 -33180124.836    20161788.748   -25829114.6334   20161783.4394
 -41060731.598    19704771.467   -31970896.6924   19704765.1044
 05  4  2  0 55 59.9960000  0  9G 1G 4G 7G11G19G20G23G24G28
  -6512451.090    23532894.267    -5057940.4924   23532892.4884
  -5156634.234    23177950.524    -3994708.8564   23177945.8024
 -24016173.535    21650811.860   -18693336.1084   21650806.9364
 -47174639.570    20222590.944   -36732787.7794   20222584.5114
 -45659573.156    23014874.938   -35552551.8394   23014868.9284
 -40284622.527    19344203.457   -31364671.9104   19344197.2164
   -997941.219    23988678.835     -755051.8694   23988674.6834
 -33266318.883    20145386.997   -25896278.8204   20145381.3864
 -41119177.469    19693649.901   -32016438.9344   19693643.2084
 05  4  2  0 56 29.9960000  0  9G 1G 4G 7G11G19G20G23G24G28
  -6586052.914    23518888.864    -5115292.5074   23518885.7414
  -5292190.000    23152154.063    -4100336.6964   23152150.6214
 -24144944.625    21626307.640   -18793677.1704   21626302.4194
 -47170542.980    20223370.359   -36729595.6364   20223363.8644
 -45633750.727    23019788.722   -35532430.5934   23019783.6074
 -40360756.809    19329715.743   -31423997.3084   19329709.4394
  -1134192.809    23962751.358     -861221.8634   23962746.6254
 -33352250.734    20129034.646   -25963238.6944   20129028.9044
 -41177042.566    19682638.492   -32061528.6414   19682632.0744
 05  4  2  0 56 59.9960000  0  9G 1G 4G 7G11G19G20G23G24G28
  -6659236.496    23504961.989    -5172318.6894   23504959.5194
  -5427613.949    23126384.970    -4205861.7954   23126380.3824
 -24273672.004    21601811.709   -18893984.2034   21601806.5074
 -47166315.941    20224174.641   -36726301.8724   20224168.3614
 -45607783.664    23024730.112   -35512196.6714   23024725.0614
 -40436323.098    19315335.707   -31482880.1104   19315329.3014
  -1270591.352    23936795.363     -967506.3054   23936791.2304
 -33437923.125    20112731.368   -26029996.4004   20112726.0104
 -41234328.508    19671737.555   -32106167.0354   19671730.6174
 05  4  2  0 57 29.9960000  0  9G 1G 4G 7G11G19G20G23G24G28
  -6731996.758    23491116.440    -5229014.9294   23491113.5144
  -5562902.309    23100640.235    -4311281.2534   23100635.8874
 -24402350.879    21577325.197   -18994253.4224   21577319.7904
 -47161956.051    20225004.662   -36722904.5854   20224997.9064
 -45581668.992    23029699.490   -35491847.6464   23029694.4414
 -40511317.207    19301065.173   -31541317.0634   19301058.7394
  -1407131.113    23910812.882    -1073900.7854   23910808.7204
 -33523333.082    20096478.293   -26096549.6024   20096473.3844
 -41291031.672    19660947.122   -32150351.3384   19660940.5164
 05  4  2  0 57 59.9960000  0  9G 1G 4G 7G11G19G20G23G24G28
  -6804333.445    23477351.154    -5285381.1294   23477347.8254
  -5698056.199    23074921.435    -4416595.9644   23074917.1264
 -24530981.078    21552847.043   -19094484.7244   21552841.6054
 -47157465.824    20225858.930   -36719405.7334   20225852.1564
 -45555408.371    23034696.593   -35471384.9404   23034691.3334
 -40585740.066    19286902.850   -31599308.8824   19286896.2194
  -1543810.402    23884802.638    -1180404.0654   23884799.1614
 -33608482.523    20080275.114   -26162899.8044   20080270.0964
 -41347153.062    19650267.651   -32194082.3074   19650260.9744
 05  4  2  0 58 29.9960000  0  9G 1G 4G 7G11G19G20G23G24G28
  -6876244.418    23463665.830    -5341415.5964   23463664.2464
  -5833074.758    23049227.123    -4521805.1734   23049223.8544
 -24659560.629    21528378.937   -19194676.5534   21528374.2054
 -47152845.355    20226738.372   -36715805.3914   20226731.9474
 -45529001.406    23039721.917   -35450808.2454   23039716.9814
 -40659590.605    19272849.528   -31656854.7454   19272842.8204
  -1680626.047    23858768.274    -1287013.5624   23858763.5344
 -33693371.375    20064120.839   -26229046.9544   20064115.7714
 -41402691.660    19639698.949   -32237359.1364   19639692.1794
 05  4  2  0 58 59.9960000  0  9G 1G 4G 7G11G19G20G23G24G28
  -6947727.473    23450063.764    -5397116.7144   23450061.8584
  -5967956.918    23023560.791    -4626908.1064   23023556.8374
 -24788087.688    21503921.493   -19294827.4734   21503916.0044
 -47148095.469    20227642.243   -36712104.1914   20227635.4614
 -45502447.965    23044775.371   -35430117.3714   23044770.5044
 -40732867.746    19258905.146   -31713953.7924   19258898.8014
  -1817574.879    23832707.686    -1393726.8154   23832703.1504
 -33777999.980    20048016.551   -26294991.3104   20048011.7764
 -41457646.730    19629241.462   -32280181.2714   19629234.5654
 05  4  2  0 59 29.9960000  0  9G 1G 4G 7G11G19G20G23G24G28
  -7018778.629    23436543.370    -5452481.2264   23436541.0284
  -6102699.844    22997920.027    -4731902.5534   22997915.9404
 -24916558.336    21479474.236   -19394934.4454   21479468.9054
 -47143214.367    20228570.887   -36708300.7584   20228563.8884
 -45475745.918    23049856.811   -35409310.7154   23049852.0834
 -40805568.645    19245070.632   -31770603.8294   19245064.3644
  -1954651.832    23806622.326    -1500539.9004   23806617.6414
 -33862366.410    20031962.301   -26360731.3744   20031957.0344
 -41512015.594    19618895.340   -32322546.6354   19618888.6364
                            4  1
RINEX FILE SPLICE; other post-header comments skipped       COMMENT
